[{"fsq_id": "41059b00f964a520850b1fe3", "categories": [{"id": 19040, "name": "International Airport", "icon": {"prefix": "https://ss3.4sqi.net/img/categories_v2/travel/airport_", "suffix": ".png"}}], "chains": [], "distance": 17902, "geocodes": {"main": {"longitude": -122.395506, "latitude": 37.624123}, "roof": {"latitude": 37.624123, "longitude": -122.395506}}, "link": "/v3/places/41059b00f964a520850b1fe3", "location": {"address_extended": "Ste 650", "census_block": "060819843001002", "country": "US", "cross_street": "at Link Rd", "dma": "San Francisco-Oakland-San Jose", "formatted_address": "at Link Rd, San Francisco, CA 94128", "locality": "San Francisco", "po_box": "P.O. Box 8097", "postcode": "94128", "region": "CA"}, "name": "San Francisco International Airport (SFO)", "related_places": {"children": [{"fsq_id": "4db37642316a3bec52549b82", "name": "Domestic Parking Garage E - Short Term/Hourly Parking"}, {"fsq_id": "4a7f4289f964a52075f31fe3", "name": "Rental Car Center"}, {"fsq_id": "4e021ccc22717718d3a28cd7", "name": "Runway 10R/28L"}, {"fsq_id": "4c1fa175eac020a1c3614bc2", "name": "Terminal 3"}, {"fsq_id": "4db3755f316a3bec525492f3", "name": "Domestic Parking Garage C - Short Term/Hourly Parking"}, {"fsq_id": "4bb9dbc353649c74364e48fb", "name": "Terminal 2"}, {"fsq_id": "563fd624cd107e7ca9be2e15", "name": "SFO Apron"}, {"fsq_id": "4adb6ba7f964a520442721e3", "name": "SFO Cell Phone Waiting Lot"}, {"fsq_id": "4beac6d96295c9b686ce8608", "name": "Domestic Parking Garage F - Short Term/Hourly Parking"}, {"fsq_id": "4ba51a41f964a52085dd38e3", "name": "Lot D Overflow Parking"}, {"fsq_id": "4bdb6b812a3a0f479d00afb6", "name": "SFO Executive Terminal"}, {"fsq_id": "4ca76aecf47ea143e0686a21", "name": "SFO AirTrain"}, {"fsq_id": "5cae56a01de765002cded237", "name": "Grand Hyatt At Sfo F&B"}, {"fsq_id": "57add968498e2d74c294a035", "name": "Runway 1R/19L"}, {"fsq_id": "581f85e66401964ad5a636f6", "name": "Runway 10L/28R"}, {"fsq_id": "4a9f3c11f964a520fb3c20e3", "name": "SFO Long Term Parking"}, {"fsq_id": "4d2089830901721e555f93a5", "name": "International Terminal"}, {"fsq_id": "4db375fc316a3bec525498cb", "name": "Domestic Parking Garage D - Short Term/Hourly Parking"}, {"fsq_id": "4db30bde5da3a76f44201863", "name": "Domestic Parking Garage B - Short Term/Hourly Parking"}, {"fsq_id": "4bce7946c564ef3b2d71eef0", "name": "Harvey Milk Terminal 1"}, {"fsq_id": "506ca757e4b013f9aa1a0510", "name": "Runway 1L/19R"}, {"fsq_id": "468ef191f964a52093481fe3", "name": "San Francisco International Airport BART Station"}, {"fsq_id": "4db37abd316a3bec5254c53e", "name": "SFO AirTrain Station - Garage G & BART"}, {"fsq_id": "4bf5f9744d5f20a12ea098fe", "name": "SFO Employee Parking Lot C"}, {"fsq_id": "4e37340f922e670561038269", "name": "International Garage A"}, {"fsq_id": "4e3735ea922e670561038305", "name": "Garage G"}, {"fsq_id": "4db3768b316a3bec52549e66", "name": "Domestic Parking Garage F/G - Short Term/Hourly Parking"}, {"fsq_id": "5d935ac06957e600086874f2", "name": "SFO AirTrain Station - Grand Hyatt at SFO"}, {"fsq_id": "4bc0d3774cdfc9b6dd8f9321", "name": "SFO AirTrain Station - West Field Road"}]}, "timezone": "America/Los_Angeles"}, {"fsq_id": "4493522af964a5207c341fe3", "categories": [{"id": 19040, "name": "International Airport", "icon": {"prefix": "https://ss3.4sqi.net/img/categories_v2/travel/airport_", "suffix": ".png"}}], "chains": [], "distance": 17613, "geocodes": {"main": {"longitude": -122.212997, "latitude": 37.7117}, "roof": {"latitude": 37.7117, "longitude": -122.212997}}, "link": "/v3/places/4493522af964a5207c341fe3", "location": {"address": "1 Airport Dr", "address_extended": "Ste 45", "census_block": "060014090002024", "country": "US", "dma": "San Francisco-Oakland-San Jose", "formatted_address": "1 Airport Dr, Oakland, CA 94621", "locality": "Oakland", "po_box": "P.O. Box 45", "postcode": "94621", "region": "CA"}, "name": "Oakland International Airport (OAK)", "related_places": {"children": [{"fsq_id": "4e0b2e5962e1a5e780715430", "name": "Terminal 1"}, {"fsq_id": "4bd48e61637ba593f0ecf470", "name": "OAK Apron"}, {"fsq_id": "4bf16f2c5f8520a1c4abc07f", "name": "Kaiserair"}, {"fsq_id": "4c7ee0851009a09338db454e", "name": "Avitat Executive Air Terminal"}, {"fsq_id": "4ceacfb59f776ea89fc76a22", "name": "Daily Parking Lot"}, {"fsq_id": "5c544ebcb1538e0039deb075", "name": "Peet's Coffee and Tea"}, {"fsq_id": "63016747ef3a587510668167", "name": "Oakland Draft House"}, {"fsq_id": "4bd833890b779c74638d06a0", "name": "Terminal 2"}, {"fsq_id": "4ecd8aa1f5b9832ad6fe7391", "name": "Oakland Air Traffic Control Tower"}, {"fsq_id": "54743157498e86777d3420c6", "name": "BART - Oakland International Airport Station"}, {"fsq_id": "4c0e65697189c9285062d8b6", "name": "Rental Car Shuttle"}, {"fsq_id": "4eef67956da153687ce0d053", "name": "Runway"}, {"fsq_id": "4c537dd9a724e21eb78dd1f4", "name": "FedEx Express Oakland Hub"}, {"fsq_id": "4f77ba0de4b09a0a541c6d6d", "name": "Oakland Airport Pick-up"}, {"fsq_id": "4c32c07d7cc0c9b695d3f09a", "name": "Rental Car Center"}, {"fsq_id": "623dc50796e2321ccb3a7579", "name": "Farley's Cafe"}, {"fsq_id": "58b8f95703cf257b097d58c5", "name": "Ride App Pickup"}, {"fsq_id": "4e499879fa76a0c058c63e8a", "name": "Terminal 1/2 Connection Walkway"}]}, "timezone": "America/Los_Angeles"}, {"fsq_id": "5ce5da80e65d0c002c9ce011", "categories": [{"id": 13035, "name": "Coffee Shop", "icon": {"prefix": "https://ss3.4sqi.net/img/categories_v2/food/coffeeshop_", "suffix": ".png"}}], "chains": [{"id": "ab4c54c0-d68a-012e-5619-003048cad9da", "name": "Starbucks"}], "distance": 1184, "geocodes": {"main": {"longitude": -122.393555, "latitude": 37.788371}}, "link": "/v3/places/5ce5da80e65d0c002c9ce011", "location": {"address": "299 Fremont St", "census_block": "060750615071014", "country": "US", "cross_street": "Folsom St", "dma": "San Francisco-Oakland-San Jose", "formatted_address": "299 Fremont St (Folsom St), San Francisco, CA 94105", "locality": "San Francisco", "postcode": "94105", "region": "CA"}, "name": "Starbucks", "related_places": {"parent": {"fsq_id": "5792303d498e24d6d0730c6a", "name": "Solaire"}}, "timezone": "America/Los_Angeles"}, {"fsq_id": "4aca4f0bf964a5205ac120e3", "categories": [{"id": 13035, "name": "Coffee Shop", "icon": {"prefix": "https://ss3.4sqi.net/img/categories_v2/food/coffeeshop_", "suffix": ".png"}}], "chains": [{"id": "ab4c54c0-d68a-012e-5619-003048cad9da", "name": "Starbucks"}], "distance": 1170, "geocodes": {"main": {"longitude": -122.393738, "latitude": 37.767121}, "roof": {"latitude": 37.767121, "longitude": -122.393738}}, "link": "/v3/places/4aca4f0bf964a5205ac120e3", "location": {"address": "1700 Owens St", "census_block": "060750607013015", "country": "US", "dma": "San Francisco-Oakland-San Jose", "formatted_address": "1700 Owens St, San Francisco, CA 94158", "locality": "San Francisco", "postcode": "94158", "region": "CA"}, "name": "Starbucks", "related_places": {}, "timezone": "America/Los_Angeles"}, {"fsq_id": "562f99e5498eef997327d994", "categories": [{"id": 13035, "name": "Coffee Shop", "icon": {"prefix": "https://ss3.4sqi.net/img/categories_v2/food/coffeeshop_", "suffix": ".png"}}], "chains": [{"id": "ab4c54c0-d68a-012e-5619-003048cad9da", "name": "Starbucks"}], "distance": 918, "geocodes": {"main": {"longitude": -122.38925, "latitude": 37.771253}, "roof": {"latitude": 37.771253, "longitude": -122.38925}}, "link": "/v3/places/562f99e5498eef997327d994", "location": {"address": "1375 3rd St", "census_block": "060750607013010", "country": "US", "cross_street": "Mission Bay Blvd North", "dma": "San Francisco-Oakland-San Jose", "formatted_address": "1375 3rd St (Mission Bay Blvd North), San Francisco, CA 94158", "locality": "San Francisco", "postcode": "94158", "region": "CA"}, "name": "Starbucks", "related_places": {}, "timezone": "America/Los_Angeles"}, {"fsq_id": "57a0e506498e6c087e114f97", "categories": [{"id": 13035, "name": "Coffee Shop", "icon": {"prefix": "https://ss3.4sqi.net/img/categories_v2/food/coffeeshop_", "suffix": ".png"}}], "chains": [{"id": "ab4c54c0-d68a-012e-5619-003048cad9da", "name": "Starbucks"}], "distance": 1259, "geocodes": {"main": {"longitude": -122.407429, "latitude": 37.784144}, "roof": {"latitude": 37.784144, "longitude": -122.407429}}, "link": "/v3/places/57a0e506498e6c087e114f97", "location": {"address": "865 Market St", "address_extended": "Ste C26A", "census_block": "060750176023000", "country": "US", "cross_street": "5th street", "dma": "San Francisco-Oakland-San Jose", "formatted_address": "865 Market St (5th street), San Francisco, CA 94103", "locality": "San Francisco", "postcode": "94103", "region": "CA"}, "name": "Starbucks", "related_places": {"parent": {"fsq_id": "452b81ddf964a520393b1fe3", "name": "Westfield San Francisco Centre"}}, "timezone": "America/Los_Angeles"}, {"fsq_id": "5075e479e4b013a8f7229859", "categories": [{"id": 13035, "name": "Coffee Shop", "icon": {"prefix": "https://ss3.4sqi.net/img/categories_v2/food/coffeeshop_", "suffix": ".png"}}], "chains": [{"id": "ab4c54c0-d68a-012e-5619-003048cad9da", "name": "Starbucks"}], "distance": 1056, "geocodes": {"main": {"longitude": -122.404008, "latitude": 37.78447}, "roof": {"latitude": 37.78447, "longitude": -122.404008}}, "link": "/v3/places/5075e479e4b013a8f7229859", "location": {"address": "789 Mission St", "census_block": "060750615012004", "country": "US", "cross_street": "at 4th St", "dma": "San Francisco-Oakland-San Jose", "formatted_address": "789 Mission St (at 4th St), San Francisco, CA 94103", "locality": "San Francisco", "postcode": "94103", "region": "CA"}, "name": "Starbucks", "related_places": {"parent": {"fsq_id": "4f2db71de4b094acc50d1c12", "name": "Target"}}, "timezone": "America/Los_Angeles"}, {"fsq_id": "49c7bfcaf964a520ba571fe3", "categories": [{"id": 13035, "name": "Coffee Shop", "icon": {"prefix": "https://ss3.4sqi.net/img/categories_v2/food/coffeeshop_", "suffix": ".png"}}], "chains": [{"id": "ab4c54c0-d68a-012e-5619-003048cad9da", "name": "Starbucks"}], "distance": 867, "geocodes": {"main": {"longitude": -122.40327, "latitude": 37.765871}, "roof": {"latitude": 37.765871, "longitude": -122.40327}}, "link": "/v3/places/49c7bfcaf964a520ba571fe3", "location": {"address": "201 3rd St", "address_extended": "Ste 2", "census_block": "060750607021028", "country": "US", "cross_street": "at Tehama St", "dma": "San Francisco-Oakland-San Jose", "formatted_address": "201 3rd St (at Tehama St), San Francisco, CA 94103", "locality": "San Francisco", "postcode": "94103", "region": "CA"}, "name": "Starbucks", "related_places": {"parent": {"fsq_id": "4b311420f964a520b4ff24e3", "name": "Convention Plaza"}}, "timezone": "America/Los_Angeles"}, {"fsq_id": "43bc02c3f964a520f42c1fe3", "categories": [{"id": 13035, "name": "Coffee Shop", "icon": {"prefix": "https://ss3.4sqi.net/img/categories_v2/food/coffeeshop_", "suffix": ".png"}}], "chains": [{"id": "ab4c54c0-d68a-012e-5619-003048cad9da", "name": "Starbucks"}], "distance": 1279, "geocodes": {"main": {"longitude": -122.405612, "latitude": 37.786145}, "roof": {"latitude": 37.786145, "longitude": -122.405612}}, "link": "/v3/places/43bc02c3f964a520f42c1fe3", "location": {"address": "780 Market St", "census_block": "060750117003010", "country": "US", "cross_street": "at 4th St", "dma": "San Francisco-Oakland-San Jose", "formatted_address": "780 Market St (at 4th St), San Francisco, CA 94102", "locality": "San Francisco", "postcode": "94102", "region": "CA"}, "name": "Starbucks", "related_places": {"parent": {"fsq_id": "4e77bbf422714e6e5ea43ec8", "name": "Phelan Building"}}, "timezone": "America/Los_Angeles"}, {"fsq_id": "49bd6c9ef964a5207a541fe3", "categories": [{"id": 13035, "name": "Coffee Shop", "icon": {"prefix": "https://ss3.4sqi.net/img/categories_v2/food/coffeeshop_", "suffix": ".png"}}], "chains": [{"id": "ab4c54c0-d68a-012e-5619-003048cad9da", "name": "Starbucks"}], "distance": 1074, "geocodes": {"main": {"longitude": -122.403384, "latitude": 37.770241}, "roof": {"latitude": 37.770241, "longitude": -122.403384}}, "link": "/v3/places/49bd6c9ef964a5207a541fe3", "location": {"address": "689 Townsend St", "census_block": "060750607021004", "country": "US", "cross_street": "", "dma": "San Francisco-Oakland-San Jose", "formatted_address": "689 Townsend St, San Francisco, CA 94103", "locality": "San Francisco", "postcode": "94103", "region": "CA"}, "name": "Starbucks", "related_places": {}, "timezone": "America/Los_Angeles"}, {"fsq_id": "5850768b5d6ec67d737094c4", "categories": [{"id": 13035, "name": "Coffee Shop", "icon": {"prefix": "https://ss3.4sqi.net/img/categories_v2/food/coffeeshop_", "suffix": ".png"}}], "chains": [{"id": "ab4c54c0-d68a-012e-5619-003048cad9da", "name": "Starbucks"}], "distance": 1537, "geocodes": {"main": {"longitude": -122.408216, "latitude": 37.786534}, "roof": {"latitude": 37.786534, "longitude": -122.408216}}, "link": "/v3/places/5850768b5d6ec67d737094c4", "location": {"address": "170 Ofarrell St", "census_block": "060750123013000", "country": "US", "cross_street": "", "dma": "San Francisco-Oakland-San Jose", "formatted_address": "170 Ofarrell St, San Francisco, CA 94102", "locality": "San Francisco", "postcode": "94102", "region": "CA"}, "name": "Starbucks", "related_places": {"parent": {"fsq_id": "43f8404cf964a520c22f1fe3", "name": "Macy's - San Francisco"}}, "timezone": "America/Los_Angeles"}, {"fsq_id": "4a55303af964a520d0b31fe3", "categories": [{"id": 13035, "name": "Coffee Shop", "icon": {"prefix": "https://ss3.4sqi.net/img/categories_v2/food/coffeeshop_", "suffix": ".png"}}], "chains": [{"id": "ab4c54c0-d68a-012e-5619-003048cad9da", "name": "Starbucks"}], "distance": 1478, "geocodes": {"main": {"longitude": -122.403343, "latitude": 37.765899}, "roof": {"latitude": 37.765899, "longitude": -122.403343}}, "link": "/v3/places/4a55303af964a520d0b31fe3", "location": {"address": "350 Rhode Island St", "address_extended": "Ste 120", "census_block": "060750607021028", "country": "US", "cross_street": "at 16th St", "dma": "San Francisco-Oakland-San Jose", "formatted_address": "350 Rhode Island St (at 16th St), San Francisco, CA 94103", "locality": "San Francisco", "postcode": "94103", "region": "CA"}, "name": "Starbucks", "related_places": {}, "timezone": "America/Los_Angeles"}, {"fsq_id": "4addf20ff964a520986621e3", "categories": [{"id": 13035, "name": "Coffee Shop", "icon": {"prefix": "https://ss3.4sqi.net/img/categories_v2/food/coffeeshop_", "suffix": ".png"}}], "chains": [{"id": "ab4c54c0-d68a-012e-5619-003048cad9da", "name": "Starbucks"}], "distance": 1429, "geocodes": {"main": {"longitude": -122.401872, "latitude": 37.789599}, "roof": {"latitude": 37.789599, "longitude": -122.401872}}, "link": "/v3/places/4addf20ff964a520986621e3", "location": {"address": "44 Montgomery St", "address_extended": "Ste 120", "census_block": "060750117004010", "country": "US", "cross_street": "btwn Sutter & Market St", "dma": "San Francisco-Oakland-San Jose", "formatted_address": "44 Montgomery St (btwn Sutter & Market St), San Francisco, CA 94104", "locality": "San Francisco", "postcode": "94104", "region": "CA"}, "name": "Starbucks", "related_places": {"parent": {"fsq_id": "4a8324fbf964a52031fa1fe3", "name": "44 Montgomery"}}, "timezone": "America/Los_Angeles"}, {"fsq_id": "4a6dc9d5f964a520fcd21fe3", "categories": [{"id": 13035, "name": "Coffee Shop", "icon": {"prefix": "https://ss3.4sqi.net/img/categories_v2/food/coffeeshop_", "suffix": ".png"}}], "chains": [{"id": "ab4c54c0-d68a-012e-5619-003048cad9da", "name": "Starbucks"}], "distance": 1225, "geocodes": {"main": {"longitude": -122.401113, "latitude": 37.787664}, "roof": {"latitude": 37.787664, "longitude": -122.401113}}, "link": "/v3/places/4a6dc9d5f964a520fcd21fe3", "location": {"address": "74 New Montgomery St", "address_extended": "Unit 218", "census_block": "060750615013007", "country": "US", "cross_street": "at Jessie St", "dma": "San Francisco-Oakland-San Jose", "formatted_address": "74 New Montgomery St (at Jessie St), San Francisco, CA 94105", "locality": "San Francisco", "postcode": "94105", "region": "CA"}, "name": "Starbucks", "related_places": {"parent": {"fsq_id": "526a980b11d20042fa0f4fb2", "name": "The Montgomery"}}, "timezone": "America/Los_Angeles"}, {"fsq_id": "431e2d80f964a5207c271fe3", "categories": [{"id": 13035, "name": "Coffee Shop", "icon": {"prefix": "https://ss3.4sqi.net/img/categories_v2/food/coffeeshop_", "suffix": ".png"}}], "chains": [{"id": "ab4c54c0-d68a-012e-5619-003048cad9da", "name": "Starbucks"}], "distance": 1020, "geocodes": {"main": {"longitude": -122.404135, "latitude": 37.784199}, "roof": {"latitude": 37.784199, "longitude": -122.404135}}, "link": "/v3/places/431e2d80f964a5207c271fe3", "location": {"address": "120 4th St", "census_block": "060750176023002", "country": "US", "cross_street": "at Mission St", "dma": "San Francisco-Oakland-San Jose", "formatted_address": "120 4th St (at Mission St), San Francisco, CA 94103", "locality": "San Francisco", "postcode": "94103", "region": "CA"}, "name": "Starbucks", "related_places": {"parent": {"fsq_id": "49f7d1c9f964a520e26c1fe3", "name": "Fifth & Mission Yerba Buena Garage"}}, "timezone": "America/Los_Angeles"}, {"fsq_id": "73c9e5501e18012f487f54d8", "categories": [{"id": 13035, "name": "Coffee Shop", "icon": {"prefix": "https://ss3.4sqi.net/img/categories_v2/food/coffeeshop_", "suffix": ".png"}}], "chains": [{"id": "ab4c54c0-d68a-012e-5619-003048cad9da", "name": "Starbucks"}], "distance": 189, "geocodes": {"main": {"longitude": -122.394085, "latitude": 37.776667}, "roof": {"latitude": 37.776667, "longitude": -122.394085}}, "link": "/v3/places/73c9e5501e18012f487f54d8", "location": {"address": "298 King St", "census_block": "060750607031000", "country": "US", "dma": "San Francisco-Oakland-San Jose", "formatted_address": "298 King St, San Francisco, CA 94107", "locality": "San Francisco", "postcode": "94107", "region": "CA"}, "name": "Starbucks", "related_places": {}}, {"fsq_id": "992088ba0ff9491d370310b5", "categories": [{"id": 13035, "name": "Coffee Shop", "icon": {"prefix": "https://ss3.4sqi.net/img/categories_v2/food/coffeeshop_", "suffix": ".png"}}], "chains": [{"id": "ab4c54c0-d68a-012e-5619-003048cad9da", "name": "Starbucks"}], "distance": 200, "geocodes": {"main": {"longitude": -122.393676, "latitude": 37.777025}, "roof": {"latitude": 37.777025, "longitude": -122.393676}}, "link": "/v3/places/992088ba0ff9491d370310b5", "location": {"address": "280 King St", "census_block": "060750607031000", "country": "US", "dma": "San Francisco-Oakland-San Jose", "formatted_address": "280 King St, San Francisco, CA 94107", "locality": "San Francisco", "postcode": "94107", "region": "CA"}, "name": "Starbucks", "related_places": {}}, {"fsq_id": "c46b2800c22a4e87183a0507", "categories": [{"id": 13035, "name": "Coffee Shop", "icon": {"prefix": "https://ss3.4sqi.net/img/categories_v2/food/coffeeshop_", "suffix": ".png"}}], "chains": [{"id": "ab4c54c0-d68a-012e-5619-003048cad9da", "name": "Starbucks"}], "distance": 1325, "geocodes": {"main": {"longitude": -122.39764, "latitude": 37.789562}, "roof": {"latitude": 37.789562, "longitude": -122.39764}}, "link": "/v3/places/c46b2800c22a4e87183a0507", "location": {"address": "100 1st St", "census_block": "060750615011009", "country": "US", "dma": "San Francisco-Oakland-San Jose", "formatted_address": "100 1st St, San Francisco, CA 94105", "locality": "San Francisco", "postcode": "94105", "region": "CA"}, "name": "Starbucks", "related_places": {}}, {"fsq_id": "55fb1864498e7c8fbd4b8e69", "categories": [{"id": 12058, "name": "Elementary School", "icon": {"prefix": "https://ss3.4sqi.net/img/categories_v2/building/school_", "suffix": ".png"}}], "chains": [], "distance": 676, "geocodes": {"main": {"longitude": -122.401127, "latitude": 37.781815}, "roof": {"latitude": 37.781815, "longitude": -122.401127}}, "link": "/v3/places/55fb1864498e7c8fbd4b8e69", "location": {"address": "300 4th St", "census_block": "060750178012000", "country": "US", "cross_street": "", "dma": "San Francisco-Oakland-San Jose", "formatted_address": "300 4th St, San Francisco, CA 94107", "locality": "San Francisco", "postcode": "94107", "region": "CA"}, "name": "AltSchool Yerba Buena", "related_places": {}, "timezone": "America/Los_Angeles"}, {"fsq_id": "4c914ecc1adc370480ff2ed1", "categories": [{"id": 12058, "name": "Elementary School", "icon": {"prefix": "https://ss3.4sqi.net/img/categories_v2/building/school_", "suffix": ".png"}}], "chains": [], "distance": 941, "geocodes": {"main": {"longitude": -122.406672, "latitude": 37.776165}, "roof": {"latitude": 37.776165, "longitude": -122.406672}}, "link": "/v3/places/4c914ecc1adc370480ff2ed1", "location": {"address": "375 7th St", "census_block": "060750178043004", "country": "US", "cross_street": "at Harrison St", "dma": "San Francisco-Oakland-San Jose", "formatted_address": "375 7th St (at Harrison St), San Francisco, CA 94103", "locality": "San Francisco", "postcode": "94103", "region": "CA"}, "name": "Bessie Carmichael Elementary School", "related_places": {}, "timezone": "America/Los_Angeles"}, {"fsq_id": "8f7e423cd7cd4ef0a2399a10", "categories": [{"id": 12057, "name": "Primary and Secondary School", "icon": {"prefix": "https://ss3.4sqi.net/img/categories_v2/building/school_", "suffix": ".png"}}], "chains": [], "distance": 505, "geocodes": {"main": {"longitude": -122.400333, "latitude": 37.780504}, "roof": {"latitude": 37.780504, "longitude": -122.400333}}, "link": "/v3/places/8f7e423cd7cd4ef0a2399a10", "location": {"address": "824 Harrison St", "census_block": "060750178012002", "country": "US", "dma": "San Francisco-Oakland-San Jose", "formatted_address": "824 Harrison St, San Francisco, CA 94107", "locality": "San Francisco", "postcode": "94107", "region": "CA"}, "name": "Fec Middle School", "related_places": {}}, {"fsq_id": "a8bdaba8367540716c30eb98", "categories": [{"id": 12057, "name": "Primary and Secondary School", "icon": {"prefix": "https://ss3.4sqi.net/img/categories_v2/building/school_", "suffix": ".png"}}], "chains": [], "distance": 505, "geocodes": {"main": {"longitude": -122.400333, "latitude": 37.780504}, "roof": {"latitude": 37.780504, "longitude": -122.400333}}, "link": "/v3/places/a8bdaba8367540716c30eb98", "location": {"address": "824 Harrison St", "census_block": "060750178012002", "country": "US", "dma": "San Francisco-Oakland-San Jose", "formatted_address": "824 Harrison St, San Francisco, CA 94107", "locality": "San Francisco", "postcode": "94107", "region": "CA"}, "name": "San Francisco Unified School District", "related_places": {}}, {"fsq_id": "5694b7a1957f427d79d8b59f", "categories": [{"id": 12058, "name": "Elementary School", "icon": {"prefix": "https://ss3.4sqi.net/img/categories_v2/building/school_", "suffix": ".png"}}], "chains": [], "distance": 530, "geocodes": {"main": {"longitude": -122.400556, "latitude": 37.78065}, "roof": {"latitude": 37.78065, "longitude": -122.400556}}, "link": "/v3/places/5694b7a1957f427d79d8b59f", "location": {"address": "825 Shotwell St", "census_block": "060750178012002", "country": "US", "dma": "San Francisco-Oakland-San Jose", "formatted_address": "825 Shotwell St, San Francisco, CA 94110", "locality": "San Francisco", "postcode": "94110", "region": "CA"}, "name": "San Francisco Unified School District", "related_places": {}}, {"fsq_id": "c299f13a1e804eb4fd4bf7a5", "categories": [{"id": 12057, "name": "Primary and Secondary School", "icon": {"prefix": "https://ss3.4sqi.net/img/categories_v2/building/school_", "suffix": ".png"}}], "chains": [], "distance": 548, "geocodes": {"main": {"longitude": -122.398214, "latitude": 37.782266}, "roof": {"latitude": 37.782266, "longitude": -122.398214}}, "link": "/v3/places/c299f13a1e804eb4fd4bf7a5", "location": {"address": "730 Harrison St", "address_extended": "Ste 210", "census_block": "060750178013000", "country": "US", "dma": "San Francisco-Oakland-San Jose", "formatted_address": "730 Harrison St, San Francisco, CA 94107", "locality": "San Francisco", "postcode": "94107", "region": "CA"}, "name": "California Charter Schools", "related_places": {}}, {"fsq_id": "559d892ca0374695beaa9c74", "categories": [{"id": 12057, "name": "Primary and Secondary School", "icon": {"prefix": "https://ss3.4sqi.net/img/categories_v2/building/school_", "suffix": ".png"}}], "chains": [], "distance": 555, "geocodes": {"main": {"longitude": -122.40207, "latitude": 37.777137}, "roof": {"latitude": 37.777137, "longitude": -122.40207}}, "link": "/v3/places/559d892ca0374695beaa9c74", "location": {"address": "70 Oak Grove St", "census_block": "060750180002010", "country": "US", "dma": "San Francisco-Oakland-San Jose", "formatted_address": "70 Oak Grove St, San Francisco, CA 94107", "locality": "San Francisco", "postcode": "94107", "region": "CA"}, "name": "San Francisco Unified School District", "related_places": {}}, {"fsq_id": "bc614c9faa6e4619eb47d205", "categories": [{"id": 12059, "name": "High School", "icon": {"prefix": "https://ss3.4sqi.net/img/categories_v2/building/school_", "suffix": ".png"}}], "chains": [], "distance": 555, "geocodes": {"main": {"longitude": -122.402074, "latitude": 37.777202}, "roof": {"latitude": 37.777202, "longitude": -122.402074}}, "link": "/v3/places/bc614c9faa6e4619eb47d205", "location": {"address": "70 Oak Grove St", "census_block": "060750180002010", "country": "US", "dma": "San Francisco-Oakland-San Jose", "formatted_address": "70 Oak Grove St, San Francisco, CA 94107", "locality": "San Francisco", "postcode": "94107", "region": "CA"}, "name": "Five Keys Charter School", "related_places": {}}, {"fsq_id": "52df0aed498ec0fba1fa7e2d", "categories": [{"id": 12059, "name": "High School", "icon": {"prefix": "https://ss3.4sqi.net/img/categories_v2/building/school_", "suffix": ".png"}}], "chains": [], "distance": 1349, "geocodes": {"main": {"longitude": -122.410495, "latitude": 37.774142}, "roof": {"latitude": 37.774142, "longitude": -122.410495}}, "link": "/v3/places/52df0aed498ec0fba1fa7e2d", "location": {"address": "585 Howard St", "address_extended": "Fl 3", "census_block": "060750178032000", "country": "US", "cross_street": "2nd Street", "dma": "San Francisco-Oakland-San Jose", "formatted_address": "585 Howard St (2nd Street), San Francisco, CA 94105", "locality": "San Francisco", "postcode": "94105", "region": "CA"}, "name": "AltSchool", "related_places": {}, "timezone": "America/Los_Angeles"}, {"fsq_id": "3d9465a2114a4cd0a3fbfb35", "categories": [{"id": 12057, "name": "Primary and Secondary School", "icon": {"prefix": "https://ss3.4sqi.net/img/categories_v2/building/school_", "suffix": ".png"}}], "chains": [], "distance": 764, "geocodes": {"main": {"longitude": -122.392076, "latitude": 37.783943}, "roof": {"latitude": 37.783943, "longitude": -122.392076}}, "link": "/v3/places/3d9465a2114a4cd0a3fbfb35", "location": {"address": "333 Bryant St", "census_block": "060750615083001", "country": "US", "dma": "San Francisco-Oakland-San Jose", "formatted_address": "333 Bryant St, San Francisco, CA 94107", "locality": "San Francisco", "postcode": "94107", "region": "CA"}, "name": "Hult International Business School", "related_places": {}}, {"fsq_id": "df26050380a84d5c73cbe744", "categories": [{"id": 12058, "name": "Elementary School", "icon": {"prefix": "https://ss3.4sqi.net/img/categories_v2/building/school_", "suffix": ".png"}}], "chains": [], "distance": 919, "geocodes": {"main": {"longitude": -122.406228, "latitude": 37.777146}}, "link": "/v3/places/df26050380a84d5c73cbe744", "location": {"address": "55 Sherman St", "census_block": "060750178043002", "country": "US", "dma": "San Francisco-Oakland-San Jose", "formatted_address": "55 Sherman St, San Francisco, CA 94103", "locality": "San Francisco", "postcode": "94103", "region": "CA"}, "name": "Bessie Carmichael Elementary School", "related_places": {}}, {"fsq_id": "d8db0fd466704f768ba5c4c1", "categories": [{"id": 12058, "name": "Elementary School", "icon": {"prefix": "https://ss3.4sqi.net/img/categories_v2/building/school_", "suffix": ".png"}}], "chains": [], "distance": 934, "geocodes": {"main": {"longitude": -122.406151, "latitude": 37.775845}, "roof": {"latitude": 37.775845, "longitude": -122.406151}}, "link": "/v3/places/d8db0fd466704f768ba5c4c1", "location": {"address": "1098 Harrison St", "census_block": "060750178043004", "country": "US", "dma": "San Francisco-Oakland-San Jose", "formatted_address": "1098 Harrison St, San Francisco, CA 94103", "locality": "San Francisco", "postcode": "94103", "region": "CA"}, "name": "San Francisco Unified School District", "related_places": {}}, {"fsq_id": "1f07645977224b84c64848d6", "categories": [{"id": 12058, "name": "Elementary School", "icon": {"prefix": "https://ss3.4sqi.net/img/categories_v2/building/school_", "suffix": ".png"}}], "chains": [], "distance": 946, "geocodes": {"main": {"longitude": -122.406491, "latitude": 37.776734}, "roof": {"latitude": 37.776734, "longitude": -122.406491}}, "link": "/v3/places/1f07645977224b84c64848d6", "location": {"address": "55 Sherman St", "census_block": "060750178043004", "country": "US", "dma": "San Francisco-Oakland-San Jose", "formatted_address": "55 Sherman St, San Francisco, CA 94103", "locality": "San Francisco", "postcode": "94103", "region": "CA"}, "name": "Bessie Carmichael Pre-K School", "related_places": {}}, {"fsq_id": "28b50d7186ff4cd1c8bb589c", "categories": [{"id": 12058, "name": "Elementary School", "icon": {"prefix": "https://ss3.4sqi.net/img/categories_v2/building/school_", "suffix": ".png"}}], "chains": [], "distance": 1401, "geocodes": {"main": {"longitude": -122.401367, "latitude": 37.789539}, "roof": {"latitude": 37.789539, "longitude": -122.401367}}, "link": "/v3/places/28b50d7186ff4cd1c8bb589c", "location": {"address": "582 Market St", "address_extended": "Ste 412", "census_block": "060750117004010", "country": "US", "dma": "San Francisco-Oakland-San Jose", "formatted_address": "582 Market St, San Francisco, CA 94104", "locality": "San Francisco", "postcode": "94104", "region": "CA"}, "name": "San Ramon Valley Unified School.dst", "related_places": {}}, {"fsq_id": "57fbb40ecd1057f331ffd3e3", "categories": [{"id": 13065, "name": "Restaurant", "icon": {"prefix": "https://ss3.4sqi.net/img/categories_v2/food/default_", "suffix": ".png"}}, {"id": 13377, "name": "Vegan and Vegetarian Restaurant", "icon": {"prefix": "https://ss3.4sqi.net/img/categories_v2/food/vegetarian_", "suffix": ".png"}}], "chains": [{"id": "e9b6ff79-62b5-4a0b-9ef6-b9bf15f3b53f", "name": "sweetgreen"}], "distance": 1089, "geocodes": {"main": {"longitude": -122.398432, "latitude": 37.787182}, "roof": {"latitude": 37.787182, "longitude": -122.398432}}, "link": "/v3/places/57fbb40ecd1057f331ffd3e3", "location": {"address": "171 2nd St", "census_block": "060750615011007", "country": "US", "cross_street": "", "dma": "San Francisco-Oakland-San Jose", "formatted_address": "171 2nd St, San Francisco, CA 94105", "locality": "San Francisco", "postcode": "94105", "region": "CA"}, "name": "Sweetgreen", "related_places": {}, "timezone": "America/Los_Angeles"}, {"fsq_id": "54c42de4498ee52a43a5ee44", "categories": [{"id": 13302, "name": "Mediterranean Restaurant", "icon": {"prefix": "https://ss3.4sqi.net/img/categories_v2/food/mediterranean_", "suffix": ".png"}}, {"id": 13309, "name": "Middle Eastern Restaurant", "icon": {"prefix": "https://ss3.4sqi.net/img/categories_v2/food/middleeastern_", "suffix": ".png"}}, {"id": 13377, "name": "Vegan and Vegetarian Restaurant", "icon": {"prefix": "https://ss3.4sqi.net/img/categories_v2/food/vegetarian_", "suffix": ".png"}}], "chains": [], "distance": 1406, "geocodes": {"main": {"longitude": -122.411217, "latitude": 37.78124}}, "link": "/v3/places/54c42de4498ee52a43a5ee44", "location": {"address": "1051 Market St", "census_block": "060750176043000", "country": "US", "cross_street": "at 6th St", "dma": "San Francisco-Oakland-San Jose", "formatted_address": "1051 Market St (at 6th St), San Francisco, CA 94103", "locality": "San Francisco", "postcode": "94103", "region": "CA"}, "name": "The Flying Falafel", "related_places": {}, "timezone": "America/Los_Angeles"}, {"fsq_id": "58d971cce18e6505fb03201b", "categories": [{"id": 13068, "name": "American Restaurant", "icon": {"prefix": "https://ss3.4sqi.net/img/categories_v2/food/default_", "suffix": ".png"}}, {"id": 13332, "name": "Salad Restaurant", "icon": {"prefix": "https://ss3.4sqi.net/img/categories_v2/food/salad_", "suffix": ".png"}}, {"id": 13377, "name": "Vegan and Vegetarian Restaurant", "icon": {"prefix": "https://ss3.4sqi.net/img/categories_v2/food/vegetarian_", "suffix": ".png"}}], "chains": [], "distance": 1154, "geocodes": {"main": {"longitude": -122.404432, "latitude": 37.785581}, "roof": {"latitude": 37.785581, "longitude": -122.404432}}, "link": "/v3/places/58d971cce18e6505fb03201b", "location": {"address": "51 Yerba Buena Ln", "census_block": "060750615012005", "country": "US", "cross_street": "", "dma": "San Francisco-Oakland-San Jose", "formatted_address": "51 Yerba Buena Ln, San Francisco, CA 94103", "locality": "San Francisco", "postcode": "94103", "region": "CA"}, "name": "Mixt", "related_places": {}, "timezone": "America/Los_Angeles"}, {"fsq_id": "61a69cdccda59c2ad42fc821", "categories": [{"id": 13065, "name": "Restaurant", "icon": {"prefix": "https://ss3.4sqi.net/img/categories_v2/food/default_", "suffix": ".png"}}, {"id": 13377, "name": "Vegan and Vegetarian Restaurant", "icon": {"prefix": "https://ss3.4sqi.net/img/categories_v2/food/vegetarian_", "suffix": ".png"}}], "chains": [{"id": "e9b6ff79-62b5-4a0b-9ef6-b9bf15f3b53f", "name": "sweetgreen"}], "distance": 1357, "geocodes": {"main": {"longitude": -122.391744, "latitude": 37.789656}}, "link": "/v3/places/61a69cdccda59c2ad42fc821", "location": {"address": "150 Folsom St", "census_block": "060750615071012", "country": "US", "cross_street": "Main St", "dma": "San Francisco-Oakland-San Jose", "formatted_address": "150 Folsom St (Main St), San Francisco, CA 94105", "locality": "San Francisco", "postcode": "94105", "region": "CA"}, "name": "Sweetgreen", "related_places": {}, "timezone": "America/Los_Angeles"}, {"fsq_id": "ceb3071edec14aa02350393c", "categories": [{"id": 13377, "name": "Vegan and Vegetarian Restaurant", "icon": {"prefix": "https://ss3.4sqi.net/img/categories_v2/food/vegetarian_", "suffix": ".png"}}], "chains": [], "distance": 612, "geocodes": {"main": {"longitude": -122.40267, "latitude": 37.776853}}, "link": "/v3/places/ceb3071edec14aa02350393c", "location": {"address": "60 Morris St", "census_block": "060750180002011", "country": "US", "dma": "San Francisco-Oakland-San Jose", "formatted_address": "60 Morris St, San Francisco, CA 94107", "locality": "San Francisco", "postcode": "94107", "region": "CA"}, "name": "Plant B", "related_places": {}}, {"fsq_id": "818f12b1fc7641bab42e8336", "categories": [{"id": 13302, "name": "Mediterranean Restaurant", "icon": {"prefix": "https://ss3.4sqi.net/img/categories_v2/food/mediterranean_", "suffix": ".png"}}, {"id": 13332, "name": "Salad Restaurant", "icon": {"prefix": "https://ss3.4sqi.net/img/categories_v2/food/salad_", "suffix": ".png"}}, {"id": 13377, "name": "Vegan and Vegetarian Restaurant", "icon": {"prefix": "https://ss3.4sqi.net/img/categories_v2/food/vegetarian_", "suffix": ".png"}}], "chains": [], "distance": 897, "geocodes": {"main": {"longitude": -122.391417, "latitude": 37.770414}}, "link": "/v3/places/818f12b1fc7641bab42e8336", "location": {"address": "601 Mission Bay Blvd N", "census_block": "060750607012012", "country": "US", "dma": "San Francisco-Oakland-San Jose", "formatted_address": "601 Mission Bay Blvd N, San Francisco, CA 94158", "locality": "San Francisco", "postcode": "94158", "region": "CA"}, "name": "Neighborhood Grove San Francisco", "related_places": {}}, {"fsq_id": "32e0e8dd507b49a7f88f7b76", "categories": [{"id": 13332, "name": "Salad Restaurant", "icon": {"prefix": "https://ss3.4sqi.net/img/categories_v2/food/salad_", "suffix": ".png"}}, {"id": 13377, "name": "Vegan and Vegetarian Restaurant", "icon": {"prefix": "https://ss3.4sqi.net/img/categories_v2/food/vegetarian_", "suffix": ".png"}}], "chains": [], "distance": 1428, "geocodes": {"main": {"longitude": -122.411168, "latitude": 37.781898}, "roof": {"latitude": 37.781898, "longitude": -122.411168}}, "link": "/v3/places/32e0e8dd507b49a7f88f7b76", "location": {"address": "1028 Market St", "census_block": "060750125033003", "country": "US", "dma": "San Francisco-Oakland-San Jose", "formatted_address": "1028 Market St, San Francisco, CA 94102", "locality": "San Francisco", "postcode": "94102", "region": "CA"}, "name": "Graze Salad Bar", "related_places": {}}, {"fsq_id": "26b5e129906b4f5a696a5103", "categories": [{"id": 13199, "name": "Indian Restaurant", "icon": {"prefix": "https://ss3.4sqi.net/img/categories_v2/food/indian_", "suffix": ".png"}}, {"id": 13377, "name": "Vegan and Vegetarian Restaurant", "icon": {"prefix": "https://ss3.4sqi.net/img/categories_v2/food/vegetarian_", "suffix": ".png"}}], "chains": [], "distance": 617, "geocodes": {"main": {"longitude": -122.402687, "latitude": 37.776665}, "roof": {"latitude": 37.776665, "longitude": -122.402687}}, "link": "/v3/places/26b5e129906b4f5a696a5103", "location": {"address": "60 Morris St", "census_block": "060750180002011", "country": "US", "dma": "San Francisco-Oakland-San Jose", "formatted_address": "60 Morris St, San Francisco, CA 94107", "locality": "San Francisco", "postcode": "94107", "region": "CA"}, "name": "Roz Ka Affaire", "related_places": {}}, {"fsq_id": "5e62b0dd17c5cd0007a326ca", "categories": [{"id": 13352, "name": "Thai Restaurant", "icon": {"prefix": "https://ss3.4sqi.net/img/categories_v2/food/thai_", "suffix": ".png"}}, {"id": 13377, "name": "Vegan and Vegetarian Restaurant", "icon": {"prefix": "https://ss3.4sqi.net/img/categories_v2/food/vegetarian_", "suffix": ".png"}}], "chains": [], "distance": 589, "geocodes": {"main": {"longitude": -122.402622, "latitude": 37.776768}, "roof": {"latitude": 37.776768, "longitude": -122.402622}}, "link": "/v3/places/5e62b0dd17c5cd0007a326ca", "location": {"address": "60 Morris St", "census_block": "060750180002011", "country": "US", "cross_street": "Bryant St", "dma": "San Francisco-Oakland-San Jose", "formatted_address": "60 Morris St (Bryant St), San Francisco, CA 94107", "locality": "San Francisco", "postcode": "94107", "region": "CA"}, "name": "Thai Basil Cart", "related_places": {}, "timezone": "America/Los_Angeles"}, {"fsq_id": "5efeab5406d84b0008f93026", "categories": [{"id": 13072, "name": "Asian Restaurant", "icon": {"prefix": "https://ss3.4sqi.net/img/categories_v2/food/asian_", "suffix": ".png"}}, {"id": 13289, "name": "Korean Restaurant", "icon": {"prefix": "https://ss3.4sqi.net/img/categories_v2/food/korean_", "suffix": ".png"}}, {"id": 13377, "name": "Vegan and Vegetarian Restaurant", "icon": {"prefix": "https://ss3.4sqi.net/img/categories_v2/food/vegetarian_", "suffix": ".png"}}], "chains": [], "distance": 621, "geocodes": {"main": {"longitude": -122.402842, "latitude": 37.776849}, "roof": {"latitude": 37.776849, "longitude": -122.402842}}, "link": "/v3/places/5efeab5406d84b0008f93026", "location": {"address": "60 Morris St", "census_block": "060750180002011", "country": "US", "cross_street": "", "dma": "San Francisco-Oakland-San Jose", "formatted_address": "60 Morris St, San Francisco, CA 94107", "locality": "San Francisco", "postcode": "94107", "region": "CA"}, "name": "Ginger Bowls", "related_places": {}, "timezone": "America/Los_Angeles"}, {"fsq_id": "61200f4f2762f223dfc42061", "categories": [{"id": 13302, "name": "Mediterranean Restaurant", "icon": {"prefix": "https://ss3.4sqi.net/img/categories_v2/food/mediterranean_", "suffix": ".png"}}, {"id": 13377, "name": "Vegan and Vegetarian Restaurant", "icon": {"prefix": "https://ss3.4sqi.net/img/categories_v2/food/vegetarian_", "suffix": ".png"}}], "chains": [], "distance": 1192, "geocodes": {"main": {"longitude": -122.408583, "latitude": 37.78127}}, "link": "/v3/places/61200f4f2762f223dfc42061", "location": {"address": "996 Mission St", "census_block": "060750176022005", "country": "US", "cross_street": "", "dma": "San Francisco-Oakland-San Jose", "formatted_address": "996 Mission St, San Francisco, CA 94103", "locality": "San Francisco", "postcode": "94103", "region": "CA"}, "name": "The Bite", "related_places": {}, "timezone": "America/Los_Angeles"}, {"fsq_id": "579921ab498e220f33bd59a2", "categories": [{"id": 10032, "name": "Night Club", "icon": {"prefix": "https://ss3.4sqi.net/img/categories_v2/nightlife/nightclub_", "suffix": ".png"}}, {"id": 13003, "name": "Bar", "icon": {"prefix": "https://ss3.4sqi.net/img/categories_v2/nightlife/pub_", "suffix": ".png"}}], "chains": [], "distance": 1471, "geocodes": {"main": {"longitude": -122.40659, "latitude": 37.767481}, "roof": {"latitude": 37.767481, "longitude": -122.40659}}, "link": "/v3/places/579921ab498e220f33bd59a2", "location": {"address": "119 Utah St", "census_block": "060750177001003", "country": "US", "cross_street": "at 15th St", "dma": "San Francisco-Oakland-San Jose", "formatted_address": "119 Utah St (at 15th St), San Francisco, CA 94103", "locality": "San Francisco", "postcode": "94103", "region": "CA"}, "name": "The Great Northern", "related_places": {}, "timezone": "America/Los_Angeles"}, {"fsq_id": "3fd66200f964a52028f11ee3", "categories": [{"id": 10032, "name": "Night Club", "icon": {"prefix": "https://ss3.4sqi.net/img/categories_v2/nightlife/nightclub_", "suffix": ".png"}}, {"id": 13003, "name": "Bar", "icon": {"prefix": "https://ss3.4sqi.net/img/categories_v2/nightlife/pub_", "suffix": ".png"}}], "chains": [], "distance": 1271, "geocodes": {"main": {"longitude": -122.40949, "latitude": 37.781406}, "roof": {"latitude": 37.781406, "longitude": -122.40949}}, "link": "/v3/places/3fd66200f964a52028f11ee3", "location": {"address": "60 6th St", "census_block": "060750176043001", "country": "US", "cross_street": "btwn Market & Mission St", "dma": "San Francisco-Oakland-San Jose", "formatted_address": "60 6th St (btwn Market & Mission St), San Francisco, CA 94103", "locality": "San Francisco", "postcode": "94103", "region": "CA"}, "name": "Club Six", "related_places": {}, "timezone": "America/Los_Angeles"}, {"fsq_id": "4b1ee998f964a5207b2124e3", "categories": [{"id": 10032, "name": "Night Club", "icon": {"prefix": "https://ss3.4sqi.net/img/categories_v2/nightlife/nightclub_", "suffix": ".png"}}, {"id": 13016, "name": "Lounge", "icon": {"prefix": "https://ss3.4sqi.net/img/categories_v2/nightlife/default_", "suffix": ".png"}}], "chains": [], "distance": 1275, "geocodes": {"main": {"longitude": -122.409986, "latitude": 37.775283}}, "link": "/v3/places/4b1ee998f964a5207b2124e3", "location": {"address": "1192 Folsom St", "census_block": "060750178041006", "country": "US", "cross_street": "8th", "dma": "San Francisco-Oakland-San Jose", "formatted_address": "1192 Folsom St (8th), San Francisco, CA 94103", "locality": "San Francisco", "postcode": "94103", "region": "CA"}, "name": "F8 1192 Folsom", "related_places": {}, "timezone": "America/Los_Angeles"}, {"fsq_id": "413ba880f964a520e91a1fe3", "categories": [{"id": 10032, "name": "Night Club", "icon": {"prefix": "https://ss3.4sqi.net/img/categories_v2/nightlife/nightclub_", "suffix": ".png"}}], "chains": [], "distance": 1268, "geocodes": {"main": {"longitude": -122.409851, "latitude": 37.775367}, "roof": {"latitude": 37.775367, "longitude": -122.409851}}, "link": "/v3/places/413ba880f964a520e91a1fe3", "location": {"address": "1190 Folsom St", "census_block": "060750178041006", "country": "US", "cross_street": "at 8th St", "dma": "San Francisco-Oakland-San Jose", "formatted_address": "1190 Folsom St (at 8th St), San Francisco, CA 94103", "locality": "San Francisco", "postcode": "94103", "region": "CA"}, "name": "Cat Club", "related_places": {"children": []}, "timezone": "America/Los_Angeles"}, {"fsq_id": "4c302764ed37a593d5926803", "categories": [{"id": 10032, "name": "Night Club", "icon": {"prefix": "https://ss3.4sqi.net/img/categories_v2/nightlife/nightclub_", "suffix": ".png"}}], "chains": [], "distance": 879, "geocodes": {"main": {"longitude": -122.405784, "latitude": 37.778128}, "roof": {"latitude": 37.778128, "longitude": -122.405784}}, "link": "/v3/places/4c302764ed37a593d5926803", "location": {"address": "1015 Folsom St", "census_block": "060750178043000", "country": "US", "cross_street": "Harriet", "dma": "San Francisco-Oakland-San Jose", "formatted_address": "1015 Folsom St (Harriet), San Francisco, CA 94103", "locality": "San Francisco", "postcode": "94103", "region": "CA"}, "name": "Pura Club", "related_places": {}, "timezone": "America/Los_Angeles"}, {"fsq_id": "4b3119d7f964a5203b0025e3", "categories": [{"id": 10032, "name": "Night Club", "icon": {"prefix": "https://ss3.4sqi.net/img/categories_v2/nightlife/nightclub_", "suffix": ".png"}}], "chains": [], "distance": 1444, "geocodes": {"main": {"longitude": -122.406617, "latitude": 37.767936}, "roof": {"latitude": 37.767936, "longitude": -122.406617}}, "link": "/v3/places/4b3119d7f964a5203b0025e3", "location": {"address": "817 Terry A Francois Blvd", "census_block": "060750177001003", "country": "US", "cross_street": "between Illinois St & Mariposa St", "dma": "San Francisco-Oakland-San Jose", "formatted_address": "817 Terry A Francois Blvd (between Illinois St & Mariposa St), San Francisco, CA 94158", "locality": "San Francisco", "postcode": "94158", "region": "CA"}, "name": "Breakfast of Champions", "related_places": {}, "timezone": "America/Los_Angeles"}, {"fsq_id": "3fd66200f964a52075ec1ee3", "categories": [{"id": 10032, "name": "Night Club", "icon": {"prefix": "https://ss3.4sqi.net/img/categories_v2/nightlife/nightclub_", "suffix": ".png"}}], "chains": [], "distance": 878, "geocodes": {"main": {"longitude": -122.405784, "latitude": 37.778128}, "roof": {"latitude": 37.778128, "longitude": -122.405784}}, "link": "/v3/places/3fd66200f964a52075ec1ee3", "location": {"address": "1015 Folsom St", "census_block": "060750178043000", "country": "US", "cross_street": "at 6th St", "dma": "San Francisco-Oakland-San Jose", "formatted_address": "1015 Folsom St (at 6th St), San Francisco, CA 94103", "locality": "San Francisco", "postcode": "94103", "region": "CA"}, "name": "1015 Folsom", "related_places": {}, "timezone": "America/Los_Angeles"}, {"fsq_id": "4f11193ae4b03856f0012625", "categories": [{"id": 10032, "name": "Night Club", "icon": {"prefix": "https://ss3.4sqi.net/img/categories_v2/nightlife/nightclub_", "suffix": ".png"}}, {"id": 13016, "name": "Lounge", "icon": {"prefix": "https://ss3.4sqi.net/img/categories_v2/nightlife/default_", "suffix": ".png"}}, {"id": 13145, "name": "Fast Food Restaurant", "icon": {"prefix": "https://ss3.4sqi.net/img/categories_v2/food/fastfood_", "suffix": ".png"}}], "chains": [], "distance": 1165, "geocodes": {"main": {"longitude": -122.408936, "latitude": 37.775665}, "roof": {"latitude": 37.775665, "longitude": -122.408936}}, "link": "/v3/places/4f11193ae4b03856f0012625", "location": {"address": "1151 Folsom St", "census_block": "060750178043006", "country": "US", "cross_street": "btw 7th St. and 8th St.", "dma": "San Francisco-Oakland-San Jose", "formatted_address": "1151 Folsom St (btw 7th St. and 8th St.), San Francisco, CA 94103", "locality": "San Francisco", "postcode": "94103", "region": "CA"}, "name": "Raven Bar", "related_places": {}, "timezone": "America/Los_Angeles"}, {"fsq_id": "4c4a830f42b4d13a6a8b537d", "categories": [{"id": 10032, "name": "Night Club", "icon": {"prefix": "https://ss3.4sqi.net/img/categories_v2/nightlife/nightclub_", "suffix": ".png"}}, {"id": 13003, "name": "Bar", "icon": {"prefix": "https://ss3.4sqi.net/img/categories_v2/nightlife/pub_", "suffix": ".png"}}], "chains": [], "distance": 505, "geocodes": {"main": {"longitude": -122.397485, "latitude": 37.78206}, "roof": {"latitude": 37.78206, "longitude": -122.397485}}, "link": "/v3/places/4c4a830f42b4d13a6a8b537d", "location": {"address": "715 Harrison St", "census_block": "060750180002000", "country": "US", "dma": "San Francisco-Oakland-San Jose", "formatted_address": "715 Harrison St, San Francisco, CA 94107", "locality": "San Francisco", "postcode": "94107", "region": "CA"}, "name": "Club X", "related_places": {}, "timezone": "America/Los_Angeles"}, {"fsq_id": "50418718e4b072dc95eb36d1", "categories": [{"id": 10032, "name": "Night Club", "icon": {"prefix": "https://ss3.4sqi.net/img/categories_v2/nightlife/nightclub_", "suffix": ".png"}}, {"id": 13011, "name": "Gay Bar", "icon": {"prefix": "https://ss3.4sqi.net/img/categories_v2/nightlife/gaybar_", "suffix": ".png"}}], "chains": [], "distance": 1218, "geocodes": {"main": {"longitude": -122.409401, "latitude": 37.781727}}, "link": "/v3/places/50418718e4b072dc95eb36d1", "location": {"address": "43 6th St", "census_block": "060750176022001", "country": "US", "cross_street": "Between Market and Mission St.", "dma": "San Francisco-Oakland-San Jose", "formatted_address": "43 6th St (Between Market and Mission St.), San Francisco, CA 94103", "locality": "San Francisco", "postcode": "94103", "region": "CA"}, "name": "Omg", "related_places": {}, "timezone": "America/Los_Angeles"}, {"fsq_id": "4e98eb158b81f3191304f987", "categories": [{"id": 10032, "name": "Night Club", "icon": {"prefix": "https://ss3.4sqi.net/img/categories_v2/nightlife/nightclub_", "suffix": ".png"}}, {"id": 13009, "name": "Cocktail Bar", "icon": {"prefix": "https://ss3.4sqi.net/img/categories_v2/nightlife/cocktails_", "suffix": ".png"}}, {"id": 13016, "name": "Lounge", "icon": {"prefix": "https://ss3.4sqi.net/img/categories_v2/nightlife/default_", "suffix": ".png"}}], "chains": [], "distance": 229, "geocodes": {"main": {"longitude": -122.397961, "latitude": 37.779182}, "roof": {"latitude": 37.779182, "longitude": -122.397961}}, "link": "/v3/places/4e98eb158b81f3191304f987", "location": {"address": "520 4th St", "census_block": "060750180002005", "country": "US", "cross_street": "at Bryant St", "dma": "San Francisco-Oakland-San Jose", "formatted_address": "520 4th St (at Bryant St), San Francisco, CA 94107", "locality": "San Francisco", "postcode": "94107", "region": "CA"}, "name": "The Grand Nightclub", "related_places": {}, "timezone": "America/Los_Angeles"}, {"fsq_id": "49e98651f964a520fc651fe3", "categories": [{"id": 10032, "name": "Night Club", "icon": {"prefix": "https://ss3.4sqi.net/img/categories_v2/nightlife/nightclub_", "suffix": ".png"}}, {"id": 13016, "name": "Lounge", "icon": {"prefix": "https://ss3.4sqi.net/img/categories_v2/nightlife/default_", "suffix": ".png"}}, {"id": 13065, "name": "Restaurant", "icon": {"prefix": "https://ss3.4sqi.net/img/categories_v2/food/default_", "suffix": ".png"}}], "chains": [], "distance": 1138, "geocodes": {"main": {"longitude": -122.397112, "latitude": 37.787904}, "roof": {"latitude": 37.787904, "longitude": -122.397112}}, "link": "/v3/places/49e98651f964a520fc651fe3", "location": {"address": "540 Howard St", "census_block": "060750615011007", "country": "US", "cross_street": "btwn 1st & 2nd St", "dma": "San Francisco-Oakland-San Jose", "formatted_address": "540 Howard St (btwn 1st & 2nd St), San Francisco, CA 94105", "locality": "San Francisco", "postcode": "94105", "region": "CA"}, "name": "Temple Nightclub", "related_places": {"children": [{"fsq_id": "5f7a3385afd1c610f528ce27", "name": "Soma Garden"}]}, "timezone": "America/Los_Angeles"}, {"fsq_id": "3fd66200f964a520a5ec1ee3", "categories": [{"id": 10032, "name": "Night Club", "icon": {"prefix": "https://ss3.4sqi.net/img/categories_v2/nightlife/nightclub_", "suffix": ".png"}}, {"id": 13011, "name": "Gay Bar", "icon": {"prefix": "https://ss3.4sqi.net/img/categories_v2/nightlife/gaybar_", "suffix": ".png"}}], "chains": [], "distance": 719, "geocodes": {"main": {"longitude": -122.403871, "latitude": 37.777293}, "roof": {"latitude": 37.777293, "longitude": -122.403871}}, "link": "/v3/places/3fd66200f964a520a5ec1ee3", "location": {"address": "401 6th St", "census_block": "060750180002012", "country": "US", "cross_street": "at Harrison St", "dma": "San Francisco-Oakland-San Jose", "formatted_address": "401 6th St (at Harrison St), San Francisco, CA 94103", "locality": "San Francisco", "postcode": "94103", "region": "CA"}, "name": "The Endup", "related_places": {}, "timezone": "America/Los_Angeles"}, {"fsq_id": "4be4feae2468c928b79fff42", "categories": [{"id": 10032, "name": "Night Club", "icon": {"prefix": "https://ss3.4sqi.net/img/categories_v2/nightlife/nightclub_", "suffix": ".png"}}], "chains": [], "distance": 500, "geocodes": {"main": {"longitude": -122.399515, "latitude": 37.781219}, "roof": {"latitude": 37.781219, "longitude": -122.399515}}, "link": "/v3/places/4be4feae2468c928b79fff42", "location": {"address": "788 Harrison St", "census_block": "060750178013003", "country": "US", "cross_street": "4th", "dma": "San Francisco-Oakland-San Jose", "formatted_address": "788 Harrison St (4th), San Francisco, CA 94107", "locality": "San Francisco", "postcode": "94107", "region": "CA"}, "name": "Nikitin & Reznikoff Obyebos", "related_places": {}, "timezone": "America/Los_Angeles"}, {"fsq_id": "4407ed4bf964a52050301fe3", "categories": [{"id": 10032, "name": "Night Club", "icon": {"prefix": "https://ss3.4sqi.net/img/categories_v2/nightlife/nightclub_", "suffix": ".png"}}, {"id": 13003, "name": "Bar", "icon": {"prefix": "https://ss3.4sqi.net/img/categories_v2/nightlife/pub_", "suffix": ".png"}}], "chains": [], "distance": 718, "geocodes": {"main": {"longitude": -122.403666, "latitude": 37.77989}, "roof": {"latitude": 37.77989, "longitude": -122.403666}}, "link": "/v3/places/4407ed4bf964a52050301fe3", "location": {"address": "917 Folsom St", "census_block": "060750178044000", "country": "US", "cross_street": "at 5th", "dma": "San Francisco-Oakland-San Jose", "formatted_address": "917 Folsom St (at 5th), San Francisco, CA 94107", "locality": "San Francisco", "postcode": "94107", "region": "CA"}, "name": "Covered Wagon Saloon", "related_places": {}, "timezone": "America/Los_Angeles"}, {"fsq_id": "4ca034880e9bb1f75efef65f", "categories": [{"id": 10032, "name": "Night Club", "icon": {"prefix": "https://ss3.4sqi.net/img/categories_v2/nightlife/nightclub_", "suffix": ".png"}}], "chains": [], "distance": 873, "geocodes": {"main": {"longitude": -122.405788, "latitude": 37.778193}, "roof": {"latitude": 37.778193, "longitude": -122.405788}}, "link": "/v3/places/4ca034880e9bb1f75efef65f", "location": {"address": "1015 Folsom St", "census_block": "060750178043000", "country": "US", "cross_street": "6th St.", "dma": "San Francisco-Oakland-San Jose", "formatted_address": "1015 Folsom St (6th St.), San Francisco, CA 94103", "locality": "San Francisco", "postcode": "94103", "region": "CA"}, "name": "Real Bad", "related_places": {}, "timezone": "America/Los_Angeles"}, {"fsq_id": "4e3e1742b61cb577be812e40", "categories": [{"id": 10032, "name": "Night Club", "icon": {"prefix": "https://ss3.4sqi.net/img/categories_v2/nightlife/nightclub_", "suffix": ".png"}}], "chains": [], "distance": 876, "geocodes": {"main": {"longitude": -122.393101, "latitude": 37.785531}, "roof": {"latitude": 37.785531, "longitude": -122.393101}}, "link": "/v3/places/4e3e1742b61cb577be812e40", "location": {"address": "525 Harrison St", "census_block": "060750615041000", "country": "US", "cross_street": "", "dma": "San Francisco-Oakland-San Jose", "formatted_address": "525 Harrison St, San Francisco, CA 94105", "locality": "San Francisco", "postcode": "94105", "region": "CA"}, "name": "SYNERGY's GLOW", "related_places": {}, "timezone": "America/Los_Angeles"}, {"fsq_id": "59f5aa35ccad6b553736fcb8", "categories": [{"id": 10032, "name": "Night Club", "icon": {"prefix": "https://ss3.4sqi.net/img/categories_v2/nightlife/nightclub_", "suffix": ".png"}}], "chains": [], "distance": 959, "geocodes": {"main": {"longitude": -122.406567, "latitude": 37.778035}, "roof": {"latitude": 37.778035, "longitude": -122.406567}}, "link": "/v3/places/59f5aa35ccad6b553736fcb8", "location": {"address": "1040 Folsom St", "census_block": "060750178041001", "country": "US", "cross_street": "", "dma": "San Francisco-Oakland-San Jose", "formatted_address": "1040 Folsom St, San Francisco, CA 94103", "locality": "San Francisco", "postcode": "94103", "region": "CA"}, "name": "1040 Folsom", "related_places": {}, "timezone": "America/Los_Angeles"}, {"fsq_id": "5083a6e4e4b0fedebe745215", "categories": [{"id": 10032, "name": "Night Club", "icon": {"prefix": "https://ss3.4sqi.net/img/categories_v2/nightlife/nightclub_", "suffix": ".png"}}, {"id": 13065, "name": "Restaurant", "icon": {"prefix": "https://ss3.4sqi.net/img/categories_v2/food/default_", "suffix": ".png"}}], "chains": [], "distance": 1039, "geocodes": {"main": {"longitude": -122.40018, "latitude": 37.786428}, "roof": {"latitude": 37.786428, "longitude": -122.40018}}, "link": "/v3/places/5083a6e4e4b0fedebe745215", "location": {"address": "147 Minna St", "census_block": "060750615012002", "country": "US", "cross_street": "", "dma": "San Francisco-Oakland-San Jose", "formatted_address": "147 Minna St, San Francisco, CA 94105", "locality": "San Francisco", "postcode": "94105", "region": "CA"}, "name": "Alibi", "related_places": {}, "timezone": "America/Los_Angeles"}, {"fsq_id": "49efbb13f964a520fc681fe3", "categories": [{"id": 10032, "name": "Night Club", "icon": {"prefix": "https://ss3.4sqi.net/img/categories_v2/nightlife/nightclub_", "suffix": ".png"}}, {"id": 13049, "name": "Diner", "icon": {"prefix": "https://ss3.4sqi.net/img/categories_v2/food/diner_", "suffix": ".png"}}, {"id": 13072, "name": "Asian Restaurant", "icon": {"prefix": "https://ss3.4sqi.net/img/categories_v2/food/asian_", "suffix": ".png"}}], "chains": [], "distance": 1410, "geocodes": {"main": {"longitude": -122.408374, "latitude": 37.785574}, "roof": {"latitude": 37.785574, "longitude": -122.408374}}, "link": "/v3/places/49efbb13f964a520fc681fe3", "location": {"address": "124 Ellis St", "census_block": "060750123013002", "country": "US", "cross_street": "at Cyril Magnin St.", "dma": "San Francisco-Oakland-San Jose", "formatted_address": "124 Ellis St (at Cyril Magnin St.), San Francisco, CA 94102", "locality": "San Francisco", "postcode": "94102", "region": "CA"}, "name": "Infusion Lounge", "related_places": {"parent": {"fsq_id": "4a1b7c5cf964a520f47a1fe3", "name": "Hotel Fusion"}}, "timezone": "America/Los_Angeles"}, {"fsq_id": "4c1476dba5eb76b073e3c1b7", "categories": [{"id": 10032, "name": "Night Club", "icon": {"prefix": "https://ss3.4sqi.net/img/categories_v2/nightlife/nightclub_", "suffix": ".png"}}], "chains": [], "distance": 1250, "geocodes": {"main": {"longitude": -122.409654, "latitude": 37.775676}, "roof": {"latitude": 37.775676, "longitude": -122.409654}}, "link": "/v3/places/4c1476dba5eb76b073e3c1b7", "location": {"address": "1178 Folsom St", "census_block": "060750178041006", "country": "US", "dma": "San Francisco-Oakland-San Jose", "formatted_address": "1178 Folsom St, San Francisco, CA 94103", "locality": "San Francisco", "postcode": "94103", "region": "CA"}, "name": "Gossip", "related_places": {}, "timezone": "America/Los_Angeles"}, {"fsq_id": "557bdac9498ee12e6309bcb4", "categories": [{"id": 10032, "name": "Night Club", "icon": {"prefix": "https://ss3.4sqi.net/img/categories_v2/nightlife/nightclub_", "suffix": ".png"}}, {"id": 13016, "name": "Lounge", "icon": {"prefix": "https://ss3.4sqi.net/img/categories_v2/nightlife/default_", "suffix": ".png"}}], "chains": [], "distance": 1441, "geocodes": {"main": {"longitude": -122.40595, "latitude": 37.767562}, "roof": {"latitude": 37.767562, "longitude": -122.40595}}, "link": "/v3/places/557bdac9498ee12e6309bcb4", "location": {"address": "150 San Bruno Ave", "census_block": "060750177001003", "country": "US", "cross_street": "15th St", "dma": "San Francisco-Oakland-San Jose", "formatted_address": "150 San Bruno Ave (15th St), San Francisco, CA 94103", "locality": "San Francisco", "postcode": "94103", "region": "CA"}, "name": "Castle SF", "related_places": {}, "timezone": "America/Los_Angeles"}, {"fsq_id": "0f9dc7c7cf7b4c0821a40065", "categories": [{"id": 10032, "name": "Night Club", "icon": {"prefix": "https://ss3.4sqi.net/img/categories_v2/nightlife/nightclub_", "suffix": ".png"}}], "chains": [], "distance": 174, "geocodes": {"main": {"longitude": -122.393888, "latitude": 37.778185}, "roof": {"latitude": 37.778185, "longitude": -122.393888}}, "link": "/v3/places/0f9dc7c7cf7b4c0821a40065", "location": {"address": "Townsend Street", "census_block": "060750180001006", "country": "US", "dma": "San Francisco-Oakland-San Jose", "formatted_address": "Townsend Street, San Francisco, CA 94107", "locality": "San Francisco", "postcode": "94107", "region": "CA"}, "name": "Rhythm Ethics Productions", "related_places": {}}, {"fsq_id": "15611bdc8a6244c5c19a22ce", "categories": [{"id": 10032, "name": "Night Club", "icon": {"prefix": "https://ss3.4sqi.net/img/categories_v2/nightlife/nightclub_", "suffix": ".png"}}], "chains": [], "distance": 413, "geocodes": {"main": {"longitude": -122.396007, "latitude": 37.774005}, "roof": {"latitude": 37.774005, "longitude": -122.396007}}, "link": "/v3/places/15611bdc8a6244c5c19a22ce", "location": {"address": "836 5TH St", "census_block": "060750607033003", "country": "US", "dma": "San Francisco-Oakland-San Jose", "formatted_address": "836 5TH St, San Francisco, CA 94103", "locality": "San Francisco", "postcode": "94103", "region": "CA"}, "name": "Big Heart City", "related_places": {}}, {"fsq_id": "5490812301654bbe45aa0c88", "categories": [{"id": 10032, "name": "Night Club", "icon": {"prefix": "https://ss3.4sqi.net/img/categories_v2/nightlife/nightclub_", "suffix": ".png"}}], "chains": [], "distance": 879, "geocodes": {"main": {"longitude": -122.405784, "latitude": 37.778128}, "roof": {"latitude": 37.778128, "longitude": -122.405784}}, "link": "/v3/places/5490812301654bbe45aa0c88", "location": {"address": "1015 Folsom St", "census_block": "060750178043000", "country": "US", "dma": "San Francisco-Oakland-San Jose", "formatted_address": "1015 Folsom St, San Francisco, CA 94103", "locality": "San Francisco", "postcode": "94103", "region": "CA"}, "name": "Dance San Francisco", "related_places": {}}, {"fsq_id": "4088bc9628f8417918a7453e", "categories": [{"id": 10032, "name": "Night Club", "icon": {"prefix": "https://ss3.4sqi.net/img/categories_v2/nightlife/nightclub_", "suffix": ".png"}}], "chains": [], "distance": 879, "geocodes": {"main": {"longitude": -122.405784, "latitude": 37.778128}, "roof": {"latitude": 37.778128, "longitude": -122.405784}}, "link": "/v3/places/4088bc9628f8417918a7453e", "location": {"address": "1015 Folsom St", "census_block": "060750178043000", "country": "US", "dma": "San Francisco-Oakland-San Jose", "formatted_address": "1015 Folsom St, San Francisco, CA 94103", "locality": "San Francisco", "postcode": "94103", "region": "CA"}, "name": "Ten 15 Club", "related_places": {}}, {"fsq_id": "4ecdd46529c223f925f6bf98", "categories": [{"id": 10032, "name": "Night Club", "icon": {"prefix": "https://ss3.4sqi.net/img/categories_v2/nightlife/nightclub_", "suffix": ".png"}}, {"id": 13016, "name": "Lounge", "icon": {"prefix": "https://ss3.4sqi.net/img/categories_v2/nightlife/default_", "suffix": ".png"}}, {"id": 13065, "name": "Restaurant", "icon": {"prefix": "https://ss3.4sqi.net/img/categories_v2/food/default_", "suffix": ".png"}}], "chains": [], "distance": 1179, "geocodes": {"main": {"longitude": -122.408387, "latitude": 37.780935}, "roof": {"latitude": 37.780935, "longitude": -122.408387}}, "link": "/v3/places/4ecdd46529c223f925f6bf98", "location": {"address": "101 6th St", "census_block": "060750176022004", "country": "US", "cross_street": "at Mission St", "dma": "San Francisco-Oakland-San Jose", "formatted_address": "101 6th St (at Mission St), San Francisco, CA 94103", "locality": "San Francisco", "postcode": "94103", "region": "CA"}, "name": "Monarch", "related_places": {"children": []}, "timezone": "America/Los_Angeles"}, {"fsq_id": "3007bea791714516fc710b82", "categories": [{"id": 10032, "name": "Night Club", "icon": {"prefix": "https://ss3.4sqi.net/img/categories_v2/nightlife/nightclub_", "suffix": ".png"}}], "chains": [], "distance": 1268, "geocodes": {"main": {"longitude": -122.409924, "latitude": 37.775394}, "roof": {"latitude": 37.775394, "longitude": -122.409924}}, "link": "/v3/places/3007bea791714516fc710b82", "location": {"address": "1190 Folsom St", "census_block": "060750178041006", "country": "US", "dma": "San Francisco-Oakland-San Jose", "formatted_address": "1190 Folsom St, San Francisco, CA 94103", "locality": "San Francisco", "postcode": "94103", "region": "CA"}, "name": "Dark Shadows", "related_places": {}}, {"fsq_id": "42c1e480f964a520c4251fe3", "categories": [{"id": 10032, "name": "Night Club", "icon": {"prefix": "https://ss3.4sqi.net/img/categories_v2/nightlife/nightclub_", "suffix": ".png"}}, {"id": 13016, "name": "Lounge", "icon": {"prefix": "https://ss3.4sqi.net/img/categories_v2/nightlife/default_", "suffix": ".png"}}, {"id": 13068, "name": "American Restaurant", "icon": {"prefix": "https://ss3.4sqi.net/img/categories_v2/food/default_", "suffix": ".png"}}], "chains": [], "distance": 1134, "geocodes": {"main": {"longitude": -122.404625, "latitude": 37.785207}, "roof": {"latitude": 37.785207, "longitude": -122.404625}}, "link": "/v3/places/42c1e480f964a520c4251fe3", "location": {"address": "55 4th St", "address_extended": "Fl 39", "census_block": "060750615012005", "country": "US", "cross_street": "btwn Market & Mission", "dma": "San Francisco-Oakland-San Jose", "formatted_address": "55 4th St (btwn Market & Mission), San Francisco, CA 94103", "locality": "San Francisco", "postcode": "94103", "region": "CA"}, "name": "The View", "related_places": {"parent": {"fsq_id": "49d2c3b6f964a520d15b1fe3", "name": "San Francisco Marriott Marquis"}}, "timezone": "America/Los_Angeles"}, {"fsq_id": "4a0af16df964a520b2741fe3", "categories": [{"id": 10032, "name": "Night Club", "icon": {"prefix": "https://ss3.4sqi.net/img/categories_v2/nightlife/nightclub_", "suffix": ".png"}}, {"id": 13003, "name": "Bar", "icon": {"prefix": "https://ss3.4sqi.net/img/categories_v2/nightlife/pub_", "suffix": ".png"}}, {"id": 13065, "name": "Restaurant", "icon": {"prefix": "https://ss3.4sqi.net/img/categories_v2/food/default_", "suffix": ".png"}}], "chains": [], "distance": 1133, "geocodes": {"main": {"longitude": -122.386157, "latitude": 37.771064}, "roof": {"latitude": 37.771064, "longitude": -122.386157}}, "link": "/v3/places/4a0af16df964a520b2741fe3", "location": {"address": "489 Terry A Francois Blvd", "census_block": "060750607013001", "country": "US", "cross_street": "Pier 54", "dma": "San Francisco-Oakland-San Jose", "formatted_address": "489 Terry A Francois Blvd (Pier 54), San Francisco, CA 94158", "locality": "San Francisco", "postcode": "94158", "region": "CA"}, "name": "Bay View Boat Club", "related_places": {}, "timezone": "America/Los_Angeles"}, {"fsq_id": "518309dc498e21dbe9058b9b", "categories": [{"id": 10032, "name": "Night Club", "icon": {"prefix": "https://ss3.4sqi.net/img/categories_v2/nightlife/nightclub_", "suffix": ".png"}}, {"id": 13009, "name": "Cocktail Bar", "icon": {"prefix": "https://ss3.4sqi.net/img/categories_v2/nightlife/cocktails_", "suffix": ".png"}}, {"id": 13068, "name": "American Restaurant", "icon": {"prefix": "https://ss3.4sqi.net/img/categories_v2/food/default_", "suffix": ".png"}}], "chains": [], "distance": 1068, "geocodes": {"main": {"longitude": -122.397568, "latitude": 37.787118}, "roof": {"latitude": 37.787118, "longitude": -122.397568}}, "link": "/v3/places/518309dc498e21dbe9058b9b", "location": {"address": "575 Howard St", "census_block": "060750615031001", "country": "US", "cross_street": "at 2nd St", "dma": "San Francisco-Oakland-San Jose", "formatted_address": "575 Howard St (at 2nd St), San Francisco, CA 94105", "locality": "San Francisco", "postcode": "94105", "region": "CA"}, "name": "Southside Spirit House", "related_places": {}, "timezone": "America/Los_Angeles"}, {"fsq_id": "4fd7e58fe4b01752612d24da", "categories": [{"id": 10032, "name": "Night Club", "icon": {"prefix": "https://ss3.4sqi.net/img/categories_v2/nightlife/nightclub_", "suffix": ".png"}}, {"id": 13016, "name": "Lounge", "icon": {"prefix": "https://ss3.4sqi.net/img/categories_v2/nightlife/default_", "suffix": ".png"}}], "chains": [], "distance": 853, "geocodes": {"main": {"longitude": -122.403804, "latitude": 37.782232}, "roof": {"latitude": 37.782232, "longitude": -122.403804}}, "link": "/v3/places/4fd7e58fe4b01752612d24da", "location": {"address": "855 Howard St", "census_block": "060750178011002", "country": "US", "cross_street": "5th Street", "dma": "San Francisco-Oakland-San Jose", "formatted_address": "855 Howard St (5th Street), San Francisco, CA 94103", "locality": "San Francisco", "postcode": "94103", "region": "CA"}, "name": "The Red Room", "related_places": {}, "timezone": "America/Los_Angeles"}, {"fsq_id": "c202f9d864e546dc80479038", "categories": [{"id": 10032, "name": "Night Club", "icon": {"prefix": "https://ss3.4sqi.net/img/categories_v2/nightlife/nightclub_", "suffix": ".png"}}, {"id": 13011, "name": "Gay Bar", "icon": {"prefix": "https://ss3.4sqi.net/img/categories_v2/nightlife/gaybar_", "suffix": ".png"}}], "chains": [], "distance": 705, "geocodes": {"main": {"longitude": -122.403802, "latitude": 37.777331}, "roof": {"latitude": 37.777331, "longitude": -122.403802}}, "link": "/v3/places/c202f9d864e546dc80479038", "location": {"address": "401 6th St", "census_block": "060750180002012", "country": "US", "dma": "San Francisco-Oakland-San Jose", "formatted_address": "401 6th St, San Francisco, CA 94103", "locality": "San Francisco", "postcode": "94103", "region": "CA"}, "name": "ShangriLa SF", "related_places": {}}, {"fsq_id": "53b375b2498e4171a9fa7f23", "categories": [{"id": 10032, "name": "Night Club", "icon": {"prefix": "https://ss3.4sqi.net/img/categories_v2/nightlife/nightclub_", "suffix": ".png"}}, {"id": 13011, "name": "Gay Bar", "icon": {"prefix": "https://ss3.4sqi.net/img/categories_v2/nightlife/gaybar_", "suffix": ".png"}}], "chains": [], "distance": 580, "geocodes": {"main": {"longitude": -122.402424, "latitude": 37.778286}, "roof": {"latitude": 37.778286, "longitude": -122.402424}}, "link": "/v3/places/53b375b2498e4171a9fa7f23", "location": {"address": "933 Harrison St", "census_block": "060750180002008", "country": "US", "cross_street": "", "dma": "San Francisco-Oakland-San Jose", "formatted_address": "933 Harrison St, San Francisco, CA 94107", "locality": "San Francisco", "postcode": "94107", "region": "CA"}, "name": "Blow Buddies", "related_places": {}, "timezone": "America/Los_Angeles"}, {"fsq_id": "4e50898d52b1e893ad6bf34d", "categories": [{"id": 10032, "name": "Night Club", "icon": {"prefix": "https://ss3.4sqi.net/img/categories_v2/nightlife/nightclub_", "suffix": ".png"}}, {"id": 13003, "name": "Bar", "icon": {"prefix": "https://ss3.4sqi.net/img/categories_v2/nightlife/pub_", "suffix": ".png"}}], "chains": [], "distance": 1282, "geocodes": {"main": {"longitude": -122.409928, "latitude": 37.775459}, "roof": {"latitude": 37.775459, "longitude": -122.409928}}, "link": "/v3/places/4e50898d52b1e893ad6bf34d", "location": {"address": "1190 Folsom St", "census_block": "060750178041006", "country": "US", "cross_street": "", "dma": "San Francisco-Oakland-San Jose", "formatted_address": "1190 Folsom St, San Francisco, CA 94103", "locality": "San Francisco", "postcode": "94103", "region": "CA"}, "name": "New Wave City", "related_places": {}, "timezone": "America/Los_Angeles"}, {"fsq_id": "4873e9a05d9a4e71965124f4", "categories": [{"id": 10032, "name": "Night Club", "icon": {"prefix": "https://ss3.4sqi.net/img/categories_v2/nightlife/nightclub_", "suffix": ".png"}}, {"id": 13017, "name": "Piano Bar", "icon": {"prefix": "https://ss3.4sqi.net/img/categories_v2/arts_entertainment/musicvenue_pianobar_", "suffix": ".png"}}, {"id": 13065, "name": "Restaurant", "icon": {"prefix": "https://ss3.4sqi.net/img/categories_v2/food/default_", "suffix": ".png"}}], "chains": [], "distance": 1475, "geocodes": {"main": {"longitude": -122.408743, "latitude": 37.786172}}, "link": "/v3/places/4873e9a05d9a4e71965124f4", "location": {"address": "243 Ofarrell St", "census_block": "060750123013002", "country": "US", "dma": "San Francisco-Oakland-San Jose", "formatted_address": "243 Ofarrell St, San Francisco, CA 94102", "locality": "San Francisco", "postcode": "94102", "region": "CA"}, "name": "Johnny Foley's Dueling Piano Bar", "related_places": {}}, {"fsq_id": "9c3a8239875d4b887202434f", "categories": [{"id": 10032, "name": "Night Club", "icon": {"prefix": "https://ss3.4sqi.net/img/categories_v2/nightlife/nightclub_", "suffix": ".png"}}, {"id": 13065, "name": "Restaurant", "icon": {"prefix": "https://ss3.4sqi.net/img/categories_v2/food/default_", "suffix": ".png"}}], "chains": [], "distance": 1363, "geocodes": {"main": {"longitude": -122.410064, "latitude": 37.7729}, "roof": {"latitude": 37.7729, "longitude": -122.410064}}, "link": "/v3/places/9c3a8239875d4b887202434f", "location": {"address": "399 9th St", "census_block": "060750178032001", "country": "US", "dma": "San Francisco-Oakland-San Jose", "formatted_address": "399 9th St, San Francisco, CA 94103", "locality": "San Francisco", "postcode": "94103", "region": "CA"}, "name": "Frolic", "related_places": {}}, {"fsq_id": "2a55f57c731840ced8d2205b", "categories": [{"id": 10032, "name": "Night Club", "icon": {"prefix": "https://ss3.4sqi.net/img/categories_v2/nightlife/nightclub_", "suffix": ".png"}}, {"id": 13003, "name": "Bar", "icon": {"prefix": "https://ss3.4sqi.net/img/categories_v2/nightlife/pub_", "suffix": ".png"}}, {"id": 13276, "name": "Sushi Restaurant", "icon": {"prefix": "https://ss3.4sqi.net/img/categories_v2/food/sushi_", "suffix": ".png"}}], "chains": [], "distance": 1207, "geocodes": {"main": {"longitude": -122.390508, "latitude": 37.787754}, "roof": {"latitude": 37.787754, "longitude": -122.390508}}, "link": "/v3/places/2a55f57c731840ced8d2205b", "location": {"address": "201 Harrison St", "address_extended": "Apt 313", "census_block": "060750615061002", "country": "US", "dma": "San Francisco-Oakland-San Jose", "formatted_address": "201 Harrison St, San Francisco, CA 94105", "locality": "San Francisco", "postcode": "94105", "region": "CA"}, "name": "Executive Referral Services", "related_places": {}}, {"fsq_id": "7fa71d001e18012f487f54d8", "categories": [{"id": 10032, "name": "Night Club", "icon": {"prefix": "https://ss3.4sqi.net/img/categories_v2/nightlife/nightclub_", "suffix": ".png"}}, {"id": 13015, "name": "Karaoke Bar", "icon": {"prefix": "https://ss3.4sqi.net/img/categories_v2/nightlife/karaoke_", "suffix": ".png"}}, {"id": 13065, "name": "Restaurant", "icon": {"prefix": "https://ss3.4sqi.net/img/categories_v2/food/default_", "suffix": ".png"}}], "chains": [], "distance": 1267, "geocodes": {"main": {"longitude": -122.409928, "latitude": 37.775459}, "roof": {"latitude": 37.775459, "longitude": -122.409928}}, "link": "/v3/places/7fa71d001e18012f487f54d8", "location": {"address": "1190 Folsom St", "census_block": "060750178041006", "country": "US", "dma": "San Francisco-Oakland-San Jose", "formatted_address": "1190 Folsom St, San Francisco, CA 94103", "locality": "San Francisco", "postcode": "94103", "region": "CA"}, "name": "Leisure", "related_places": {}}, {"fsq_id": "2144489d121a4bd185685a71", "categories": [{"id": 10032, "name": "Night Club", "icon": {"prefix": "https://ss3.4sqi.net/img/categories_v2/nightlife/nightclub_", "suffix": ".png"}}, {"id": 13065, "name": "Restaurant", "icon": {"prefix": "https://ss3.4sqi.net/img/categories_v2/food/default_", "suffix": ".png"}}], "chains": [], "distance": 1489, "geocodes": {"main": {"longitude": -122.409319, "latitude": 37.785796}, "roof": {"latitude": 37.785796, "longitude": -122.409319}}, "link": "/v3/places/2144489d121a4bd185685a71", "location": {"address": "222 Mason St", "census_block": "060750123013003", "country": "US", "dma": "San Francisco-Oakland-San Jose", "formatted_address": "222 Mason St, San Francisco, CA 94102", "locality": "San Francisco", "postcode": "94102", "region": "CA"}, "name": "Rrazz Room", "related_places": {}}, {"fsq_id": "4bed877d6e8c20a17d7f7061", "categories": [{"id": 11134, "name": "Pet Grooming Service", "icon": {"prefix": "https://ss3.4sqi.net/img/categories_v2/shops/pet_store_", "suffix": ".png"}}, {"id": 17110, "name": "Pet Supplies Store", "icon": {"prefix": "https://ss3.4sqi.net/img/categories_v2/shops/pet_store_", "suffix": ".png"}}], "chains": [], "distance": 885, "geocodes": {"main": {"longitude": -122.389322, "latitude": 37.78382}}, "link": "/v3/places/4bed877d6e8c20a17d7f7061", "location": {"address": "199 Brannan St", "census_block": "060750615081003", "country": "US", "cross_street": "at Delancey St", "dma": "San Francisco-Oakland-San Jose", "formatted_address": "199 Brannan St (at Delancey St), San Francisco, CA 94107", "locality": "San Francisco", "postcode": "94107", "region": "CA"}, "name": "Pawtrero Hill BathHouse & Feed", "related_places": {}, "timezone": "America/Los_Angeles"}, {"fsq_id": "5cc9cc5e8c35dc002cc07341", "categories": [{"id": 11134, "name": "Pet Grooming Service", "icon": {"prefix": "https://ss3.4sqi.net/img/categories_v2/shops/pet_store_", "suffix": ".png"}}, {"id": 11135, "name": "Pet Sitting and Boarding Service", "icon": {"prefix": "https://ss3.4sqi.net/img/categories_v2/shops/pet_store_", "suffix": ".png"}}, {"id": 17110, "name": "Pet Supplies Store", "icon": {"prefix": "https://ss3.4sqi.net/img/categories_v2/shops/pet_store_", "suffix": ".png"}}], "chains": [], "distance": 676, "geocodes": {"main": {"longitude": -122.391695, "latitude": 37.772602}, "roof": {"latitude": 37.772602, "longitude": -122.391695}}, "link": "/v3/places/5cc9cc5e8c35dc002cc07341", "location": {"address": "1200 4th St", "address_extended": "Ste F", "census_block": "060750607012007", "country": "US", "cross_street": "", "dma": "San Francisco-Oakland-San Jose", "formatted_address": "1200 4th St, San Francisco, CA 94158", "locality": "San Francisco", "postcode": "94158", "region": "CA"}, "name": "Healthy Spot", "related_places": {}, "timezone": "America/Los_Angeles"}, {"fsq_id": "4e9c9492be7bc875ab5545ad", "categories": [{"id": 11134, "name": "Pet Grooming Service", "icon": {"prefix": "https://ss3.4sqi.net/img/categories_v2/shops/pet_store_", "suffix": ".png"}}, {"id": 17110, "name": "Pet Supplies Store", "icon": {"prefix": "https://ss3.4sqi.net/img/categories_v2/shops/pet_store_", "suffix": ".png"}}], "chains": [], "distance": 912, "geocodes": {"main": {"longitude": -122.389344, "latitude": 37.783824}, "roof": {"latitude": 37.783824, "longitude": -122.389344}}, "link": "/v3/places/4e9c9492be7bc875ab5545ad", "location": {"address": "177 Brannan St", "census_block": "060750615081003", "country": "US", "cross_street": "Delancey St", "dma": "San Francisco-Oakland-San Jose", "formatted_address": "177 Brannan St (Delancey St), San Francisco, CA 94107", "locality": "San Francisco", "postcode": "94107", "region": "CA"}, "name": "Bernie's Grooming City Dogs", "related_places": {}, "timezone": "America/Los_Angeles"}, {"fsq_id": "4a663eb7f964a52043c81fe3", "categories": [{"id": 11134, "name": "Pet Grooming Service", "icon": {"prefix": "https://ss3.4sqi.net/img/categories_v2/shops/pet_store_", "suffix": ".png"}}, {"id": 17110, "name": "Pet Supplies Store", "icon": {"prefix": "https://ss3.4sqi.net/img/categories_v2/shops/pet_store_", "suffix": ".png"}}], "chains": [], "distance": 279, "geocodes": {"main": {"longitude": -122.392943, "latitude": 37.776754}, "roof": {"latitude": 37.776754, "longitude": -122.392943}}, "link": "/v3/places/4a663eb7f964a52043c81fe3", "location": {"address": "255 King St", "address_extended": "Ste B", "census_block": "060750607031001", "country": "US", "cross_street": "", "dma": "San Francisco-Oakland-San Jose", "formatted_address": "255 King St, San Francisco, CA 94107", "locality": "San Francisco", "postcode": "94107", "region": "CA"}, "name": "Furry Tales", "related_places": {}, "timezone": "America/Los_Angeles"}, {"fsq_id": "636addbc768b845a915b6d00", "categories": [{"id": 11134, "name": "Pet Grooming Service", "icon": {"prefix": "https://ss3.4sqi.net/img/categories_v2/shops/pet_store_", "suffix": ".png"}}], "chains": [], "distance": 532, "geocodes": {"main": {"longitude": -122.401321, "latitude": 37.779676}}, "link": "/v3/places/636addbc768b845a915b6d00", "location": {"address": "840 Harrison St", "census_block": "060750178012002", "country": "US", "cross_street": "4th", "dma": "San Francisco-Oakland-San Jose", "formatted_address": "840 Harrison St (4th), San Francisco, CA 94107", "locality": "San Francisco", "postcode": "94107", "region": "CA"}, "name": "SF Puppy Love", "related_places": {}, "timezone": "America/Los_Angeles"}, {"fsq_id": "5cb3a6e7475abd0039f8c347", "categories": [{"id": 11134, "name": "Pet Grooming Service", "icon": {"prefix": "https://ss3.4sqi.net/img/categories_v2/shops/pet_store_", "suffix": ".png"}}, {"id": 17110, "name": "Pet Supplies Store", "icon": {"prefix": "https://ss3.4sqi.net/img/categories_v2/shops/pet_store_", "suffix": ".png"}}], "chains": [], "distance": 606, "geocodes": {"main": {"longitude": -122.40259, "latitude": 37.778665}, "roof": {"latitude": 37.778665, "longitude": -122.40259}}, "link": "/v3/places/5cb3a6e7475abd0039f8c347", "location": {"address": "920 Harrison St", "address_extended": "Apt 6", "census_block": "060750178044002", "country": "US", "cross_street": "", "dma": "San Francisco-Oakland-San Jose", "formatted_address": "920 Harrison St, San Francisco, CA 94107", "locality": "San Francisco", "postcode": "94107", "region": "CA"}, "name": "Doggie Day Spaw", "related_places": {}, "timezone": "America/Los_Angeles"}, {"fsq_id": "5845a0cc668af742c7b89545", "categories": [{"id": 11134, "name": "Pet Grooming Service", "icon": {"prefix": "https://ss3.4sqi.net/img/categories_v2/shops/pet_store_", "suffix": ".png"}}], "chains": [], "distance": 924, "geocodes": {"main": {"longitude": -122.38925, "latitude": 37.771253}, "roof": {"latitude": 37.771253, "longitude": -122.38925}}, "link": "/v3/places/5845a0cc668af742c7b89545", "location": {"address": "480 Mission Bay Blvd N", "census_block": "060750607013010", "country": "US", "cross_street": "", "dma": "San Francisco-Oakland-San Jose", "formatted_address": "480 Mission Bay Blvd N, San Francisco, CA 94158", "locality": "San Francisco", "postcode": "94158", "region": "CA"}, "name": "Coiffure", "related_places": {}, "timezone": "America/Los_Angeles"}, {"fsq_id": "5d633f3a7a83cc000718f78a", "categories": [{"id": 11134, "name": "Pet Grooming Service", "icon": {"prefix": "https://ss3.4sqi.net/img/categories_v2/shops/pet_store_", "suffix": ".png"}}, {"id": 11135, "name": "Pet Sitting and Boarding Service", "icon": {"prefix": "https://ss3.4sqi.net/img/categories_v2/shops/pet_store_", "suffix": ".png"}}], "chains": [], "distance": 1364, "geocodes": {"main": {"longitude": -122.410202, "latitude": 37.772824}, "roof": {"latitude": 37.772824, "longitude": -122.410202}}, "link": "/v3/places/5d633f3a7a83cc000718f78a", "location": {"address": "395 9th St", "census_block": "060750178032001", "country": "US", "cross_street": "", "dma": "San Francisco-Oakland-San Jose", "formatted_address": "395 9th St, San Francisco, CA 94103", "locality": "San Francisco", "postcode": "94103", "region": "CA"}, "name": "Tefani & So. Dogcare", "related_places": {}, "timezone": "America/Los_Angeles"}, {"fsq_id": "e82c707c8cf34abbe15f1cfd", "categories": [{"id": 11134, "name": "Pet Grooming Service", "icon": {"prefix": "https://ss3.4sqi.net/img/categories_v2/shops/pet_store_", "suffix": ".png"}}, {"id": 17110, "name": "Pet Supplies Store", "icon": {"prefix": "https://ss3.4sqi.net/img/categories_v2/shops/pet_store_", "suffix": ".png"}}], "chains": [], "distance": 876, "geocodes": {"main": {"longitude": -122.389414, "latitude": 37.783786}, "roof": {"latitude": 37.783786, "longitude": -122.389414}}, "link": "/v3/places/e82c707c8cf34abbe15f1cfd", "location": {"address": "199 Brannan St", "census_block": "060750615081003", "country": "US", "dma": "San Francisco-Oakland-San Jose", "formatted_address": "199 Brannan St, San Francisco, CA 94107", "locality": "San Francisco", "postcode": "94107", "region": "CA"}, "name": "South Paw Bathhouse Feed Co.", "related_places": {}}, {"fsq_id": "be51489c079043e49b23eccf", "categories": [{"id": 11134, "name": "Pet Grooming Service", "icon": {"prefix": "https://ss3.4sqi.net/img/categories_v2/shops/pet_store_", "suffix": ".png"}}, {"id": 11135, "name": "Pet Sitting and Boarding Service", "icon": {"prefix": "https://ss3.4sqi.net/img/categories_v2/shops/pet_store_", "suffix": ".png"}}], "chains": [], "distance": 1093, "geocodes": {"main": {"longitude": -122.39915, "latitude": 37.787193}, "roof": {"latitude": 37.787193, "longitude": -122.39915}}, "link": "/v3/places/be51489c079043e49b23eccf", "location": {"address": "156 2nd St", "census_block": "060750615012001", "country": "US", "dma": "San Francisco-Oakland-San Jose", "formatted_address": "156 2nd St, San Francisco, CA 94105", "locality": "San Francisco", "postcode": "94105", "region": "CA"}, "name": "Tefani & So. Dogcare", "related_places": {}}, {"fsq_id": "4bf5e710004ed13a55a441a0", "categories": [{"id": 18008, "name": "Basketball Court", "icon": {"prefix": "https://ss3.4sqi.net/img/categories_v2/parks_outdoors/basketballcourt_", "suffix": ".png"}}], "chains": [], "distance": 672, "geocodes": {"main": {"longitude": -122.397898, "latitude": 37.772031}}, "link": "/v3/places/4bf5e710004ed13a55a441a0", "location": {"address": "Berry St", "census_block": "060750607033005", "country": "US", "cross_street": "I-280", "dma": "San Francisco-Oakland-San Jose", "formatted_address": "Berry St (I-280), San Francisco, CA 94158", "locality": "San Francisco", "postcode": "94158", "region": "CA"}, "name": "Berry Basketball Courts", "related_places": {}, "timezone": "America/Los_Angeles"}, {"fsq_id": "4c67170a8e9120a111e5d964", "categories": [{"id": 18008, "name": "Basketball Court", "icon": {"prefix": "https://ss3.4sqi.net/img/categories_v2/parks_outdoors/basketballcourt_", "suffix": ".png"}}], "chains": [], "distance": 672, "geocodes": {"main": {"longitude": -122.397532, "latitude": 37.771896}, "roof": {"latitude": 37.771896, "longitude": -122.397532}}, "link": "/v3/places/4c67170a8e9120a111e5d964", "location": {"address": "310 Berry St", "census_block": "060750607033005", "country": "US", "cross_street": "", "dma": "San Francisco-Oakland-San Jose", "formatted_address": "310 Berry St, San Francisco, CA 94158", "locality": "San Francisco", "postcode": "94158", "region": "CA"}, "name": "Arterra Mission Bay", "related_places": {}, "timezone": "America/Los_Angeles"}, {"fsq_id": "4bc8a0ce15a7ef3b117f7bda", "categories": [{"id": 18008, "name": "Basketball Court", "icon": {"prefix": "https://ss3.4sqi.net/img/categories_v2/parks_outdoors/basketballcourt_", "suffix": ".png"}}], "chains": [], "distance": 939, "geocodes": {"main": {"longitude": -122.406328, "latitude": 37.778838}, "roof": {"latitude": 37.778838, "longitude": -122.406328}}, "link": "/v3/places/4bc8a0ce15a7ef3b117f7bda", "location": {"address": "6TH St", "census_block": "060750178041000", "country": "US", "cross_street": "Folsom Street", "dma": "San Francisco-Oakland-San Jose", "formatted_address": "6TH St (Folsom Street), San Francisco, CA 94109", "locality": "San Francisco", "postcode": "94109", "region": "CA"}, "name": "Soma Rec Center", "related_places": {}, "timezone": "America/Los_Angeles"}]